{"AGLT2": {"AddressLine1": "450 Church St", "AddressLine2": "Physics Dept, University of Michigan", "City": "Ann Arbor", "Country": "United States", "Description": "University of Michigan/Michigan State University combined site for USATLAS computing.", "ID": 10054, "Latitude": 42.291637, "LongName": "Atlas Great Lakes Tier2", "Longitude": -83.71831, "Name": "AGLT2", "State": "MI", "Zipcode": "48109-1040"}, "AMNH": {"AddressLine1": "Central Park West at 79th St.", "City": "New York", "Country": "United States", "Description": "The American Museum of Natural History is one of the world's preeminent scientific and cultural institutions.", "ID": 10244, "Latitude": 40.7128, "LongName": "American Museum of Natural History", "Longitude": -74.006, "Name": "AMNH", "State": "NY", "Zipcode": "10024-5192"}, "ANL ASC": {"AddressLine1": "Building 360", "AddressLine2": "ANL", "City": "Lemont", "Country": "United States", "Description": "Argonne National Lab Analysis Support Center", "ID": 10122, "Latitude": 41.705917, "LongName": "Argonne National Lab Analysis Support Center", "Longitude": -87.975157, "Name": "ANL ASC", "State": "Illinois", "Zipcode": "60439"}, "APCR-DRDL": {"AddressLine1": "1668 S Martin Luther King", "City": "Tallahassee", "Country": "United States", "ID": 10138, "Latitude": 30.428152, "LongName": "AstroParticle and Cosmic Radiation Detector Research and Development Laboratory", "Longitude": -84.284816, "Name": "APCR-DRDL", "State": "Florida", "Zipcode": "32307"}, "ASGC": {"City": "Taipei", "Country": "Taiwan", "ID": 10001, "Latitude": 25.052787, "Longitude": 121.33345, "Name": "ASGC", "State": "Taipei"}, "ASU Research Computing": {"AddressLine1": "1151 S Forest Ave", "Country": "United States", "Description": "Arizona State University Research Computing", "ID": 10231, "Latitude": 33.4255, "Longitude": -111.94, "Name": "ASU Research Computing", "State": "Arizona", "Zipcode": "85281"}, "AUGIE UC": {"AddressLine1": "800 E. Lancaster Ave", "City": "Villanova", "Country": "United States", "Description": "Villanova University", "ID": 10309, "Latitude": 40.04, "LongName": "Villanova University", "Longitude": -75.34, "Name": "AUGIE UC", "State": "Pennsylvania", "Zipcode": "19085"}, "AmsterdamPRP": {"City": "Amsterdam", "Country": "Netherlands", "ID": 10250, "Latitude": 52.3824, "Longitude": 4.8995, "Name": "AmsterdamPRP"}, "Arizona Tier 3": {"City": "Tucson", "Country": "United States", "Description": "University of Arizona Hep group Tier 3", "ID": 10207, "Latitude": 32.229874, "Longitude": -110.953947, "Name": "Arizona Tier 3", "State": "Arizona", "Zipcode": "85719"}, "Arkansas State University": {"ID": 10333, "Latitude": 35.843146959474225, "LongName": "Arkansas State University", "Longitude": -90.67560992059596, "Name": "Arkansas State University"}, "BNL ATLAS Tier1": {"City": "Upton", "Country": "United States", "ID": 10046, "Latitude": 40.868386, "Longitude": -72.878366, "Name": "BNL ATLAS Tier1", "State": "NY", "Zipcode": "11973"}, "BNL-SDCC": {"City": "Upton", "Country": "United States", "ID": 10240, "Latitude": 40.868386, "Longitude": -72.878366, "Name": "BNL-SDCC", "State": "NY", "Zipcode": "11973"}, "Baylor University": {"AddressLine1": "1111 South University Parks Drive", "City": "Waco", "Country": "United States", "Description": "Baylor University OSG Site", "ID": 10226, "Latitude": 31.5498, "LongName": "Baylor University", "Longitude": -97.1143, "Name": "Baylor University", "State": "TX", "Zipcode": "76706"}, "Baylor University Tier3": {"AddressLine1": "1111 South University Parks Drive", "City": "Waco", "Country": "United States", "Description": "Baylor University T3 CMS Cluster", "ID": 10112, "Latitude": 31.551111, "LongName": "Baylor University T3", "Longitude": -97.118368, "Name": "Baylor University Tier3", "State": "TX", "Zipcode": "76706"}, "Bellarmine University": {"AddressLine1": "Department of Physics", "AddressLine2": "Bellarmine University", "City": "Louisville", "Country": "United States", "Description": "Bellarmine University ATLAS Tier3 Site", "ID": 10119, "Latitude": 38.219681, "LongName": "Bellarmine University", "Longitude": -85.703713, "Name": "Bellarmine University", "State": "Kentucky", "Zipcode": "40205"}, "Beocat": {"AddressLine1": "114 Nichols Hall", "AddressLine2": "Kansas State University", "City": "Manhattan", "Country": "United States", "Description": "The Beocat compute cluster at Kansas State University", "ID": 10120, "Latitude": 39.186514, "Longitude": -96.58088, "Name": "Beocat", "State": "KS", "Zipcode": "66506"}, "Boston University ATLAS Tier2": {"City": "Boston", "Country": "United States", "ID": 10045, "Latitude": 42.338724, "Longitude": -71.07276, "Name": "Boston University ATLAS Tier2", "State": "MA", "Zipcode": "02118"}, "Brandeis Tier 3": {"AddressLine1": "Brandeis Physics Dept MS 057", "AddressLine2": "415 South St", "City": "Waltham", "Country": "United States", "Description": "Brandeis Tier 3", "ID": 10123, "Latitude": 42.381372, "LongName": "Brandeis Tier 3", "Longitude": -71.242218, "Name": "Brandeis Tier 3", "State": "Massachusetts", "Zipcode": "02454"}, "Brookhaven Belle-II Tier1": {"City": "Upton", "Country": "United States", "ID": 10233, "Latitude": 40.868386, "Longitude": -72.878366, "Name": "Brookhaven Belle-II Tier1", "State": "NY", "Zipcode": "11973"}, "Brookhaven OSG": {"AddressLine1": "98 Rochester St", "City": "Upton", "Country": "United States", "Description": "Brookhaven National Labs OSG infrastructure", "ID": 10247, "Latitude": 40.8642675, "LongName": "Brookhaven National Labs OSG infrastructure", "Longitude": -72.8773571, "Name": "Brookhaven OSG", "State": "New York", "Zipcode": "11973"}, "Brown-CMS": {"AddressLine1": "Physics Department", "AddressLine2": "Brown University, 182 Hope Street", "City": "Providence", "Country": "United States", "Description": "CMS T3 Computing Center", "ID": 10104, "Latitude": 41.812267, "Longitude": -71.422119, "Name": "Brown-CMS", "State": "Rhode Island", "Zipcode": "02912"}, "CAS-CNIC": {"City": "Beijing", "Country": "China", "Description": "The Computer Network Information Center(CNIC) is a subsidiary research institute of the Chinese Academy of Sciences (CAS). CNIC is a support institution for sustainable construction, operation and service for informatization of Chinese Academy of Sciences, an operation management institution for basic resources of China's Internet, R&D base for advanced network and high-end application technology, and important component of the advanced S&T networks both at home and abroad. CNIC boasts seven service/research centers, including China Science and Technology Network Center (CSTNet), Scientific Data Center, Supercomputing Center, ARP (Academia Resource Planning) Operation Support Center, China Internet Network Information Center (CNNIC), Collaborative Environment Research Center (CERC) and Online Popular Science Education Center.", "ID": 10101, "Latitude": 39.987511, "LongName": "Chinese Academy of Sciences (CAS) Computer Network Information Center", "Longitude": 116.308823, "Name": "CAS-CNIC", "State": "Haidian District", "Zipcode": "100190"}, "CCHDV": {"City": "Gatineau", "Country": "Canada", "Description": "CancerComputer Ottawa installation", "ID": 10213, "Latitude": 45.4, "LongName": "CancerComputer Ottawa", "Longitude": -75.71, "Name": "CCHDV", "State": "Ontario", "Zipcode": "K1S5R5"}, "CCJDR": {"AddressLine1": "Pit\u00e1goras Street, 2 - Cidade Universit\u00e1ria, Campinas - SP", "City": "Campinas", "Country": "Brazil", "Description": "Computer Center building of the UNICAMP/IFGW", "ID": 10291, "Latitude": -22.815931210560226, "LongName": "University of Campinas - Physics Institute - Computer Center Professor John David Rogers", "Longitude": -47.067740869316836, "Name": "CCJDR", "State": "Sao Paulo", "Zipcode": "13083-859"}, "CCMINNE": {"Country": "United States", "Description": "CancerComputer's multi-purpose cluster located at UEL in Minneapolis", "ID": 10237, "Latitude": 44.97, "LongName": "CancerComputer-Minneapolis-UEL", "Longitude": -93.203, "Name": "CCMINNE", "State": "MN", "Zipcode": 55114}, "CCRnD": {"City": "Kitchener", "Country": "Canada", "Description": "A virtualized CE and WN cluster to take advantage of otherwise unused resources at CancerComputer's cluster in Kitchener", "ID": 10234, "Latitude": 43.4235682, "LongName": "CancerComputer-Kitchener-Ardelt", "Longitude": -80.4759616, "Name": "CCRnD", "State": "ON", "Zipcode": "N2C2M3"}, "CENF": {"AddressLine1": "CERN", "AddressLine2": "CH-1211 Geneva 23", "City": "Geneva", "Country": "Switzerland", "Description": "Cluster intended for use by Neutrino Platform experiments at CERN.", "ID": 10216, "Latitude": 46.22932, "LongName": "CENF Neutrino Platform", "Longitude": 6.054174, "Name": "CENF", "Zipcode": "CH-1211"}, "CHEPREO": {"City": "Miami", "Country": "United States", "ID": 10022, "Latitude": 25.846865, "Longitude": -80.378723, "Name": "CHEPREO", "State": "FL", "Zipcode": "33174"}, "CHTC": {"AddressLine1": "1210 W. Dayton St", "City": "Madison", "Country": "United States", "Description": "The University of Wisconsin's Center for High Throughput Computing.  Note that CHTC and GLOW are closely related, and in many contexts are synonyms.", "ID": 10149, "Latitude": 43.071568, "LongName": "Center for High Throughput Computing", "Longitude": -89.406931, "Name": "CHTC", "State": "Wisconsin", "Zipcode": "53706-1685"}, "CILogon": {"Country": "United States", "ID": 10211, "Latitude": 40.1057858, "Longitude": -88.2297206, "Name": "CILogon", "State": "Illinois", "Zipcode": "61801"}, "COMET": {"City": "La Jolla", "Country": "United States", "ID": 10255, "Latitude": 32.88431, "Longitude": -117.239614, "Name": "COMET", "State": "CA", "Zipcode": "92093"}, "CSU Fresno T3": {"AddressLine1": "California State University, Fresno, Department of Physics", "City": "Fresno", "Country": "United States", "Description": "California State University, Fresno, ATLAS T3g site", "ID": 10159, "Latitude": 36.812927, "LongName": "CSU Fresno T3", "Longitude": -119.746857, "Name": "CSU Fresno T3", "State": "CA", "Zipcode": "93740-8027"}, "CU - Research Computing": {"AddressLine1": "3100 Marine Street, 597 UCB", "City": "Boulder", "Country": "USA", "Description": "The Research Computing department at the University of Colorado - Boulder", "ID": 10289, "Latitude": 40.01, "LongName": "Research Computing at the University of Colorado - Boulder", "Longitude": -105.25, "Name": "CU - Research Computing", "State": "Colorado", "Zipcode": "80303"}, "Caltech CMS Tier2": {"AddressLine1": "1200 E. California Blvd", "City": "Pasadena", "Country": "United States", "ID": 10064, "Latitude": 34.137987, "Longitude": -118.124281, "Name": "Caltech CMS Tier2", "State": "CA", "Zipcode": "91125"}, "Caltech HEP": {"AddressLine1": "1200 E. California Blvd", "City": "Pasadena", "Country": "United States", "Description": "This site is managed by the Caltech High Energy Physics department.", "ID": 10132, "Latitude": 34.136133, "Longitude": -118.124278, "Name": "Caltech HEP", "State": "CA", "Zipcode": "91125"}, "Caltech LIGO": {"City": "Pasadena", "Country": "United States", "ID": 10070, "Latitude": 33.786594, "Longitude": -118.31, "Name": "Caltech LIGO", "State": "CA", "Zipcode": "91125"}, "Cardiff Computing Cluster": {"AddressLine1": "Redwood Building", "AddressLine2": "King Edward VII Avenue", "City": "Cardiff", "Country": "United Kingdom", "Description": "LIGO Cardiff Computing Cluster", "ID": 10254, "Latitude": 51.4879593, "LongName": "Cardiff Computing Cluster", "Longitude": -3.186923, "Name": "Cardiff Computing Cluster", "Zipcode": "CF10 3NB"}, "Center for Advanced Research Computing": {"AddressLine1": "3434 South Grand Avenue", "City": "Los Angeles", "Country": "United States", "Description": "Center for Advanced Research Computing at the University Southern California\n", "ID": 10312, "Latitude": 34.018944, "LongName": "Center for Advanced Research Computing", "Longitude": -118.275861, "Name": "Center for Advanced Research Computing"}, "Chameleon": {"AddressLine1": "9700 S. Cass Ave", "City": "Lemont", "Country": "USA", "Description": "Theory and Computing Sciences Building at Argonne National Laboratory", "ID": 10294, "Latitude": 41.71833, "LongName": "Chameleon Cloud at the University of Chicago", "Longitude": -87.98237, "Name": "Chameleon", "State": "Illinois", "Zipcode": "60439"}, "Clarkson - ACRES": {"AddressLine1": "8 Clarkson Ave.", "City": "Potsdam", "Country": "United States", "Description": "ACRES is a High-Performance Computing (HPC) cluster operated by the Clarkson University Office of Information Technology", "ID": 10277, "Latitude": 44.663422, "LongName": "Clarkson University ACRES Cluster", "Longitude": -74.997738, "Name": "Clarkson - ACRES", "State": "New York", "Zipcode": "13699"}, "Clemson-Palmetto": {"City": "Clemson", "Country": "United States", "ID": 10019, "Latitude": 34.847372, "Longitude": -82.710126, "Name": "Clemson-Palmetto", "State": "SC", "Zipcode": "29634"}, "ClemsonCS": {"City": "Clemson", "Country": "United States", "ID": 10082, "Latitude": 34.847372, "Longitude": -82.8, "Name": "ClemsonCS", "State": "SC", "Zipcode": "29634"}, "ComputeCanada - Cedar": {"AddressLine1": "2152 Hillside Road", "City": "Storrs", "Country": "United States", "Description": "Cedar is a heterogeneous cluster suitable for a variety of workloads; it is located at Simon Fraser University.", "ID": 10281, "Latitude": 41.8084, "LongName": "Compute Canada Cedar Cluster", "Longitude": -72.2495, "Name": "ComputeCanada - Cedar", "State": "CT", "Zipcode": "06269-3046"}, "Creighton University": {"ID": 10329, "Latitude": 41.26571336798941, "LongName": "Creighton University", "Longitude": -95.9463325580878, "Name": "Creighton University"}, "CyVerse": {"AddressLine1": "Thomas W. Keating Bioresearch Building / University of Arizona", "AddressLine2": "1657 E Helen Street", "City": "Tucson", "Country": "United States", "Description": "CyVerse provides life scientists with powerful computational infrastructure to handle huge datasets and complex analyses, thus enabling data-driven discovery.", "ID": 10238, "Latitude": 32.24, "LongName": "CyVerse", "Longitude": -110.95, "Name": "CyVerse", "State": "AZ", "Zipcode": "85721"}, "Cybera - Edmonton": {"City": "Edmonton", "Country": "Canada", "Description": "RapidAccess cloud in Edmonton", "ID": 10259, "Latitude": 53.555467, "LongName": "Cybera Openstack Edmonton", "Longitude": -113.7728991, "Name": "Cybera - Edmonton", "State": "Alberta", "Zipcode": "T5A"}, "Dakota State University": {"ID": 10330, "Latitude": 44.01268192341067, "LongName": "Dakota State University", "Longitude": -97.11035107297302, "Name": "Dakota State University"}, "Discovery": {"AddressLine1": "330 North Orchard", "City": "Madison", "Country": "United States", "Description": "Wisconsin Institutes for Discovery", "ID": 10186, "Latitude": 43.073005, "LongName": "Wisconsin Institutes for Discovery", "Longitude": -89.408536, "Name": "Discovery", "State": "WI", "Zipcode": "53711"}, "DukeTier3": {"AddressLine1": "Physics Building", "AddressLine2": "Science Drive", "City": "Durham", "Country": "United States", "Description": "Duke University HEP group Tier 3 site", "ID": 10091, "Latitude": 36.003111, "LongName": "Duke University HEP Tier 3", "Longitude": -78.942304, "Name": "DukeTier3", "State": "North Carolina", "Zipcode": "27708"}, "Emporia State University": {"ID": 10334, "Latitude": 38.41626062326386, "LongName": "Emporia State University", "Longitude": -96.17925004470031, "Name": "Emporia State University"}, "FANDM-ITS": {"AddressLine1": "637 Colleg Ave", "City": "Lancaster", "Country": "United States", "ID": 10335, "Latitude": 40.0479, "LongName": "Franlin and Marshall College Research and Computing Services - ITS", "Longitude": -76.3202, "Name": "FANDM-ITS", "State": "PA", "Zipcode": "17603"}, "FIU CMS Tier3": {"AddressLine1": "Department of Physics CP202", "AddressLine2": "11200 SW 8th Street", "City": "Miami", "Country": "United States", "Description": "CMS Tier3 site located at Florida International Univerisity", "ID": 10146, "Latitude": 25.758609, "LongName": "FIU CMS Tier3 meta cluster", "Longitude": -80.372361, "Name": "FIU CMS Tier3", "State": "Florida", "Zipcode": "33199"}, "FIU-PATH": {"AddressLine1": "11200 SW 8th St", "City": "Miami", "Country": "United States", "Description": "Resources owned by the PATh project located at Florida International University", "ID": 10318, "Latitude": 25.758, "LongName": "PATh Resources at FIU", "Longitude": -80.376, "Name": "FIU-PATH", "State": "Florida", "Zipcode": "33174"}, "FNAL HPC": {"City": "Batavia", "Country": "United States", "ID": 10218, "Latitude": 41.851376, "LongName": "Fermilab High Performance Computing", "Longitude": -88.242539, "Name": "FNAL HPC", "Zipcode": "60510"}, "FNAL USCMS Tier1": {"City": "Batavia", "Country": "United States", "ID": 10058, "Latitude": 41.841368, "Longitude": -88.255057, "Name": "FNAL USCMS Tier1", "State": "IL", "Zipcode": "60510"}, "FSU_HNPGRID": {"AddressLine1": "600 W. College Avenue", "City": "Tallahassee", "Country": "United States", "Description": "Hosted CE for GlueX and OSG support", "ID": 10232, "Latitude": 30.441822, "Longitude": -84.2985, "Name": "FSU_HNPGRID", "State": "FL", "Zipcode": "32306"}, "FZU": {"AddressLine1": "Na Slovance 1999/2", "City": "Prague 8", "Country": "Czechia", "Description": "Regional Computing Center for Particle Physics (RCCPP) is the biggest site in the Czech Republic for simulations and data processing for particle physics experiments. It is located in the Institute of Physics of the Academy of Sciences of the Czech Republic.", "ID": 10189, "Latitude": 50.123424, "Longitude": 14.468787, "Name": "FZU", "Zipcode": "182 21"}, "FermiGrid": {"City": "Batavia", "Country": "United States", "ID": 10020, "Latitude": 41.85143, "Longitude": -88.242767, "Name": "FermiGrid", "State": "IL", "Zipcode": "60510"}, "Florida State HEP": {"City": "Tallahassee", "Country": "United States", "ID": 10002, "Latitude": 30.442499, "Longitude": -84.29855, "Name": "Florida State HEP", "State": "FL", "Zipcode": "32306"}, "Florida Tech": {"AddressLine1": "150 W. University Blvd", "AddressLine2": "PSS", "City": "Melbourne", "Country": "United States", "Description": "HEP computing and US CMS at CERN", "ID": 10067, "Latitude": 28.077494, "LongName": "Florida Tech Physics and Space Sciences", "Longitude": -80.61987, "Name": "Florida Tech", "State": "FL", "Zipcode": "32901"}, "GC_PUJ": {"AddressLine1": "Carrera 7 No. 40 - 62", "City": "Bogota", "Country": "Colombia", "Description": "Site Asociated to a GCVO and GCEDU", "ID": 10143, "Latitude": 4.626875, "Longitude": -74.063972, "Name": "GC_PUJ", "State": "Bogota DC", "Zipcode": "075"}, "GC_UAC": {"AddressLine1": "Cl 90 # 46 - 112", "City": "Barranquilla", "Country": "Colombia", "Description": "Site Asociated to a GCVO and GCEDU", "ID": 10160, "Latitude": 11.00384, "Longitude": -74.823788, "Name": "GC_UAC", "State": "Atlantico", "Zipcode": "057"}, "GC_UAM": {"AddressLine1": "Antigua Estacion del Ferrocarril", "City": "Manizales", "Country": "Colombia", "Description": "Site Asociated to a GCVO and GCEDU", "ID": 10157, "Latitude": 5.068271, "LongName": "Site UAM", "Longitude": -75.502774, "Name": "GC_UAM", "State": "Caldas", "Zipcode": "0"}, "GC_UC": {"AddressLine1": "Diagonal 47 #15-50", "City": "Bogota", "Country": "Colombia", "Description": "Site Asociated to a GCVO and GCEDU", "ID": 10150, "Latitude": 4.634815, "Longitude": -74.068397, "Name": "GC_UC", "State": "Bogota DC", "Zipcode": "075"}, "GC_UCALDAS": {"AddressLine1": "Street 65 # 26-10", "City": "Manizales", "Country": "Colombia", "Description": "Site Asociated to a GCVO and GCEDU", "ID": 10151, "Latitude": 5.071394, "Longitude": -75.527846, "Name": "GC_UCALDAS", "State": "Caldas", "Zipcode": "0000"}, "GC_UDEM": {"AddressLine1": "Carrera 87 No. 30-65", "City": "Medellin", "Country": "Colombia", "Description": "Site Asociated to a GCVO and GCEDU", "ID": 10156, "Latitude": 6.232819, "Longitude": -75.611327, "Name": "GC_UDEM", "State": "Antioquia", "Zipcode": "N/A"}, "GC_UIS": {"City": "Bucaramanga", "Country": "Colombia", "Description": "Site Asociated to a GCVO and GCEDU", "ID": 10162, "Latitude": 7.140845, "Longitude": -73.121446, "Name": "GC_UIS", "Zipcode": "68001000"}, "GC_UNIANDES": {"AddressLine1": "Carrera 1 #18A-10", "City": "Bogot\u00e1", "Country": "Colombia", "Description": "Site Asociated to a GCVO and GCEDU", "ID": 10163, "Latitude": 4.601878, "Longitude": -74.065763, "Name": "GC_UNIANDES", "State": "Cundinamarca", "Zipcode": "340"}, "GC_UPB": {"AddressLine1": "Circular 1 70-01", "City": "Medellin", "Country": "Colombia", "Description": "Site Asociated to a GCVO and GCEDU", "ID": 10154, "Latitude": 6.240994, "LongName": "Universidad Pontificia Bolivariana", "Longitude": -75.589344, "Name": "GC_UPB", "State": "Antioquia", "Zipcode": "NA"}, "GC_UTB": {"AddressLine1": "Parque Industrial Carlos Velez Pombo", "AddressLine2": "Ternera Km 1 via Turbaco", "City": "Cartagena", "Country": "Colombia", "Description": "Site Asociated to a GCVO and GCEDU", "ID": 10152, "Latitude": 10.370536, "LongName": "Unitecnologica", "Longitude": -75.465742, "Name": "GC_UTB", "State": "Bolivar", "Zipcode": "130010"}, "GC_UV": {"AddressLine1": "Calle 13 # 100-00", "AddressLine2": "Room 2072, building 331.", "City": "Cali", "Country": "Colombia", "Description": "Site Asociated to a GCVO and GCEDU", "ID": 10161, "Latitude": 3.375296, "LongName": "Universidad del Valle", "Longitude": -76.532661, "Name": "GC_UV", "State": "Valle del Cauca", "Zipcode": "na"}, "GEANT-AMS": {"City": "Amsterdam", "Country": "Netherlands", "ID": 10198, "Latitude": 52.34, "LongName": "GEANT Netherlands PoP", "Longitude": 4.93, "Name": "GEANT-AMS", "Zipcode": "1087"}, "GLEAMM": {"AddressLine1": "2500 Broadway St", "City": "Lubbock", "Country": "United States", "Description": "GLEAMM advances demonstration of new university innovations and accelerates commercialization of next-generation industry technologies for enhancing the existing electricity grid towards a smart, secure and resilient energy system.", "ID": 10340, "Latitude": 33.59, "LongName": "Global Laboratory for Energy Asset Management and Manufacturing", "Longitude": -101.81, "Name": "GLEAMM", "State": "Texas", "Zipcode": "79409"}, "GLOW": {"City": "Madison", "Country": "United States", "ID": 10026, "Latitude": 43.074656, "Longitude": -89.384122, "Name": "GLOW", "State": "WI", "Zipcode": "53706"}, "GLOW ATLAS": {"City": "Madison", "Country": "United States", "ID": 10057, "Latitude": 43.074296, "Longitude": -89.5, "Name": "GLOW ATLAS", "State": "WI", "Zipcode": "53706"}, "GLOW EDU": {"City": "Madison", "Country": "United States", "ID": 10066, "Latitude": 43.074296, "Longitude": -89.40774, "Name": "GLOW EDU", "State": "WI", "Zipcode": "53706"}, "GOC Staff VM": {"City": "Bloomington", "Country": "United States", "Description": "Grouping of OSG GOC Staff VMs running various ITB Services: CE, SE, GUMS, etc", "ID": 10170, "Latitude": 39.174239, "Longitude": -86.500726, "Name": "GOC Staff VM", "Zipcode": "47408"}, "GP-ARGO": {"AddressLine1": "221 N. Stadium Blvd.", "AddressLine2": "Suite 201", "City": "Columbia", "Country": "United States", "Description": "GP-ARGO via Great Plains Network - several universities with distributed compute. See https://nsf.gov/awardsearch/showAward?AWD_ID=2018766&HistoricalAwards=false\n", "ID": 10310, "Latitude": 38.96, "LongName": "Great Plains Network", "Longitude": -92.37, "Name": "GP-ARGO", "State": "Missouri", "Zipcode": "65203"}, "GPN Kansas": {"City": "Lawrence", "Country": "United States", "ID": 10027, "Latitude": 38.952526, "Longitude": -95.275623, "Name": "GPN Kansas", "State": "KS", "Zipcode": "66045"}, "GRASE Buffalo": {"City": "Buffalo", "Country": "United States", "ID": 10030, "Latitude": 42.619813, "Longitude": -79.035645, "Name": "GRASE Buffalo", "State": "NY", "Zipcode": "14260"}, "GRASE Niagra": {"City": "Niagara", "Country": "United States", "ID": 10029, "Latitude": 43.32684, "Longitude": -78.830681, "Name": "GRASE Niagra", "State": "NY", "Zipcode": "14109"}, "GRASE-GENESEO": {"City": "Geneseo", "Country": "United States", "ID": 10096, "Latitude": 61.270233, "LongName": "GRASE-GENESEO", "Longitude": -177.1875, "Name": "GRASE-GENESEO", "State": "NY", "Zipcode": "14454"}, "GROW": {"City": "Iowa City", "Country": "United States", "ID": 10032, "Latitude": 37.160317, "Longitude": -98.701172, "Name": "GROW", "State": "IA", "Zipcode": "52242"}, "GROW-UNI": {"City": "Cedar Falls", "Country": "United States", "ID": 10033, "Latitude": 42.527184, "Longitude": -92.45609, "Name": "GROW-UNI", "State": "IA", "Zipcode": "50613"}, "GSU - ACIDS": {"City": "Atlanta", "Country": "United States", "Description": "Hosted CE for the ACIDS resource", "ID": 10315, "Latitude": 33.752971, "Longitude": -84.385318, "Name": "GSU - ACIDS", "State": "GA", "Zipcode": "30302"}, "GSU - ACORE": {"City": "Atlanta", "Country": "United States", "Description": "Hosted CE for the ACORE resource", "ID": 10288, "Latitude": 33.752971, "Longitude": -84.385318, "Name": "GSU - ACORE", "State": "GA", "Zipcode": "30302"}, "Georgia State University Research Computing": {"City": "Atlanta", "Country": "United States", "ID": 10179, "Latitude": 37.401394, "Longitude": -116.867846, "Name": "Georgia State University Research Computing", "Zipcode": "30303"}, "Georgia Tech": {"City": "Atlanta", "Country": "United States", "ID": 10203, "Latitude": 33.7758, "Longitude": -84.3947, "Name": "Georgia Tech", "Zipcode": "30332"}, "Georgia Tech - ISyE": {"City": "Atlanta", "Country": "United States", "ID": 10203, "Latitude": 33.7758, "Longitude": -84.3947, "Name": "Georgia Tech - ISyE", "Zipcode": "30332"}, "GridLAFEX": {"AddressLine1": "Rua Dr. Xavier Sigaud, 150 - Urca", "City": "Rio de Janeiro", "Country": "Brazil", "ID": 10201, "Latitude": 37.401394, "Longitude": -116.867846, "Name": "GridLAFEX", "State": "Rio de Janeiro", "Zipcode": "22290-180"}, "GridUNESP": {"AddressLine1": "Rua Dr Bento Teobaldo Ferraz, 271", "AddressLine2": "Barra Funda", "City": "S\u00e3o Paulo", "Country": "Brazil", "ID": 10111, "Latitude": -23.524246, "Longitude": -46.665443, "Name": "GridUNESP", "State": "S\u00e3o Paulo", "Zipcode": "01140-070"}, "HMS": {"AddressLine1": "240 Longwood Ave", "City": "Boston", "Country": "United States", "ID": 10148, "Latitude": 42.335822, "LongName": "Harvard Medical School", "Longitude": -71.104092, "Name": "HMS", "State": "MA", "Zipcode": "02115"}, "Harvard SBGRID": {"AddressLine1": "75 Shattuck St", "City": "Boston", "Country": "United States", "ID": 10073, "Latitude": 42.336691, "Longitude": -71.104674, "Name": "Harvard SBGRID", "State": "MA", "Zipcode": "02115"}, "Harvard University": {"Country": "United States", "ID": 10084, "Latitude": 42.22, "Longitude": -71.07, "Name": "Harvard University"}, "High Performance Computing Facility - University of Puerto Rico": {"City": "San Juan", "Country": "United States", "ID": 10187, "Latitude": 18.427525, "LongName": "High Performance Computing Facility - University of Puerto Rico", "Longitude": -66.076093, "Name": "High Performance Computing Facility - University of Puerto Rico", "State": "PR", "Zipcode": "00925"}, "ICC-SLATE-HTC": {"City": "Urbana", "Country": "United States", "Description": "University of Illinois at Urbana-Champaign's opportunistic High-Throughput Computing pool", "ID": 10270, "Latitude": 40.109647, "LongName": "University of Illinois at Urbana-Champaign HTC Cluster", "Longitude": -88.3, "Name": "ICC-SLATE-HTC", "State": "IL", "Zipcode": "61801"}, "ICTS Alice Cluster": {"AddressLine1": "ICTS-TIFR", "City": "Bengaluru", "Country": "India", "Description": "Site for hosted CE submitting to International Centre for Theoretical Sciences (ICTS-TIFR) LIGO cluster \"Alice\", Bengaluru, India", "ID": 10300, "Latitude": 12.9716, "LongName": "International Centre for Theoretical Sciences (ICTS-TIFR) LIGO Cluster \"Alice\"", "Longitude": 77.5946, "Name": "ICTS Alice Cluster"}, "IIT - Illinois Institute of Technology": {"AddressLine1": "10 W. 35th Street, 8th Floor, 8E3-2", "City": "Chicago", "Country": "United States", "Description": "Illinois Institute of technology  HPC & HTC computing resources at Research Data Center", "ID": 10212, "Latitude": 41.8349, "LongName": "Illinois Institute of Technology", "Longitude": -87.627, "Name": "IIT - Illinois Institute of Technology", "State": "IL", "Zipcode": "60616"}, "ILS": {"AddressLine1": "1320 E 10th Street", "City": "Bloomington", "Country": "United States", "Description": "Information and Library Sciences", "ID": 10177, "Latitude": 39.17099515330087, "LongName": "Information and Library Sciences", "Longitude": -86.51753783226013, "Name": "ILS", "State": "IN", "Zipcode": "47405"}, "INFN-PADOVA": {"AddressLine1": "via Marzolo 8", "City": "Padova", "Country": "Italy", "Description": "Grid site supporting SBGrid VO for interoperability tests between WeNMR/EGI and SBGrid/OSG. It hosts a glideinWMS submit node connected to the HMS SBGrid VO Frontend.", "ID": 10167, "Latitude": 45.409357, "Longitude": 11.885952, "Name": "INFN-PADOVA", "Zipcode": "35131"}, "INFN-T1": {"AddressLine1": "viale Berti Pichat 6/2", "City": "Bologna", "Country": "Italy", "Description": "INFN Tier 1", "ID": 10256, "Latitude": 44.5, "LongName": "INFN-T1", "Longitude": 11.34, "Name": "INFN-T1"}, "IRISHEP-SSL-UCHICAGO": {"AddressLine1": "5734 S Ellis ave", "City": "Chicago", "Country": "United States", "Description": "IRIS-HEP SSL Resources at the University of Chicago", "ID": 10273, "Latitude": 41.79027, "Longitude": -87.60167, "Name": "IRISHEP-SSL-UCHICAGO", "State": "IL", "Zipcode": "60637"}, "ISU HEP": {"City": "Ames", "Country": "United States", "ID": 10013, "Latitude": 42.034759, "Longitude": -93.467174, "Name": "ISU HEP", "State": "IA", "Zipcode": "50011"}, "ISU-HPC": {"AddressLine1": "94 Durham Center", "AddressLine2": "613 Morrill Road", "City": "Ames", "Country": "United States", "Description": "Iowa State University HPC Group Cluster", "ID": 10295, "Latitude": 42.027, "Longitude": -93.65, "Name": "ISU-HPC", "State": "IA", "Zipcode": "50011"}, "IU GOC GLIDEIN": {"City": "Bloomington", "Country": "United States", "ID": 10173, "Latitude": 39.17379, "Longitude": -86.497679, "Name": "IU GOC GLIDEIN", "State": "IN", "Zipcode": "47408"}, "IU UITS": {"City": "Bloomington", "Country": "United States", "ID": 10047, "Latitude": 39.173557, "Longitude": -86.501091, "Name": "IU UITS", "State": "IN", "Zipcode": "47408"}, "IUCAA Sarathi Cluster": {"AddressLine1": "Post Bag 4 Ganeshkhind", "City": "Pune", "Country": "India", "Description": "Site for hosted CE submitting to the Sarathi Cluster at IUCAA", "ID": 10236, "Latitude": 18.559302, "Longitude": 73.825484, "Name": "IUCAA Sarathi Cluster", "Zipcode": "411 007"}, "Illinois High Energy Physics": {"AddressLine1": "1110 W Green St", "City": "Urbana", "Country": "United States", "Description": "The High Energy Physics at the University of Illinois is a member of ATLAS", "ID": 10077, "Latitude": 40.109647, "LongName": "University of Illinois High Energy Physics", "Longitude": -88.21246, "Name": "Illinois High Energy Physics", "State": "IL", "Zipcode": "61801"}, "Indiana University Physics": {"AddressLine1": "727 E 3rd St", "AddressLine2": "Swain Hall West 117", "City": "Bloomington", "Country": "United States", "Description": "Indiana University Physics tier 3 cluster.", "ID": 10129, "Latitude": 39.16474, "Longitude": -86.524579, "Name": "Indiana University Physics", "State": "Indiana", "Zipcode": "47405-7105"}, "Information Sciences Institute": {"AddressLine1": "4676 Admiralty Way", "Country": "United States", "Description": "A unit of the University of Southern California\u2019s highly ranked Viterbi School of Engineering", "ID": 10237, "Latitude": 33.9801, "Longitude": -118.44, "Name": "Information Sciences Institute", "State": "CA", "Zipcode": "90292"}, "Institute for Astronomy HURP": {"AddressLine1": "640 N Aohoku Pl", "City": "Hilo", "Country": "United States", "Description": "Institute for Astronomy at the University of Hawaii at Hilo Research Park", "ID": 10342, "Latitude": 19.703, "LongName": "University of Hawaii Institute for Astronomy Hilo", "Longitude": -155.091, "Name": "Institute for Astronomy HURP", "State": "Hawaii"}, "Institute for Astronomy ITC": {"AddressLine1": "2520 Correa Rd", "City": "Honolulu", "Country": "United States", "Description": "Information Technology Center at the University of Hawaii, Manoa", "ID": 10341, "Latitude": 21.299, "LongName": "University of Hawaii Information Technology Center", "Longitude": -157.816, "Name": "Institute for Astronomy ITC", "State": "Hawaii"}, "Internet2Chicago": {"Description": "Backbone location of Internet2 at the Chicago POP", "ID": 10264, "Latitude": 41.8882, "LongName": "Internet2Chicago", "Longitude": -87.6164, "Name": "Internet2Chicago"}, "Internet2GreatPlains": {"Description": "Backbone location of Internet2 at the GreatPlains POP", "ID": 10265, "Latitude": 39.1024, "LongName": "Internet2Kansas", "Longitude": -94.5986, "Name": "Internet2GreatPlains"}, "Internet2Houston": {"Description": "Backbone location of Internet2 at the Houston POP", "ID": 10262, "Latitude": 29.8131, "LongName": "Internet2Houston", "Longitude": -95.3098, "Name": "Internet2Houston"}, "Internet2Manhattan": {"Description": "Backbone location of Internet2 at the Manhattan POP", "ID": 10263, "Latitude": 40.7145, "LongName": "Internet2Manhattan", "Longitude": -74.0029, "Name": "Internet2Manhattan"}, "Internet2Sunnyvale": {"Description": "Backbone location of Internet2 at the Sunnyvale POP", "ID": 10262, "Latitude": 37.373779, "LongName": "InternetSunnyvale", "Longitude": -121.987513, "Name": "Internet2Sunnyvale"}, "JINR_Cloud": {"City": "Dubna", "Country": "Russia", "Description": "JINR site for NOvA", "ID": 10220, "Latitude": 56.7427, "Longitude": 37.195622, "Name": "JINR_Cloud", "Zipcode": "141980"}, "JINR_Tier2": {"City": "Dubna", "Country": "Russia", "Description": "JINR-site for NOvA", "ID": 10206, "Latitude": 56.7427, "Longitude": 37.195622, "Name": "JINR_Tier2", "Zipcode": "141980"}, "JLAB": {"AddressLine1": "12000", "City": "Newport News", "Country": "United States", "ID": 10224, "Latitude": 37.094401, "Longitude": -76.48161, "Name": "JLAB", "State": "Virginia", "Zipcode": "23606"}, "JetStream": {"City": "Bloomington", "Country": "United States", "ID": 10225, "Latitude": 39.14351, "Longitude": -86.523608, "Name": "JetStream", "Zipcode": "47404"}, "KANSAS_HOSTED": {"City": "Lawrence", "Country": "United States", "Description": "Entry for hosted CE submitting to Kansas University clusters", "ID": 10222, "Latitude": 38.952526, "Longitude": -95.275623, "Name": "KANSAS_HOSTED", "State": "KS", "Zipcode": "66045"}, "KISTI-NSDC": {"City": "Yuseong", "Country": "South Korea", "Description": "Support CDF", "ID": 10107, "Latitude": 36.363729, "Longitude": 127.360725, "Name": "KISTI-NSDC", "State": "Daejeon", "Zipcode": "305-806"}, "Kansas State University": {"ID": 10320, "Latitude": 39.19756008319545, "LongName": "Kansas State University", "Longitude": -96.58472490196472, "Name": "Kansas State University"}, "Kennesaw State University": {"AddressLine1": "Kennesaw State University, Department of Biology and Physics", "AddressLine2": "1000 Chastain Road", "City": "Kennesaw", "Country": "United States", "Description": "Kennesaw State University is a member of the Belle and Belle II collaborations", "ID": 10182, "Latitude": 34.0226996, "Longitude": -84.581597, "Name": "Kennesaw State University", "State": "Georgia", "Zipcode": "30144-5591"}, "LBL_ESnet": {"AddressLine1": "1 Cyclotron Road Mail stop 50A-311", "City": "Berkeley", "Country": "United States", "Description": "perfSONAR testbed instance at LBL.  NOTE: Not on LHCONE", "ID": 10202, "Latitude": 37.401394, "LongName": "LBL ESnet", "Longitude": -116.867846, "Name": "LBL_ESnet", "State": "CA", "Zipcode": "94720"}, "LBL_HPCS": {"AddressLine1": "One Cyclotron Road", "City": "Berkeley", "Country": "United States", "Description": "Institutional computing center for LBNL", "ID": 10272, "Latitude": 37.866825, "LongName": "Berkeley Lab Research Computing Cluster", "Longitude": -122.3, "Name": "LBL_HPCS", "Zipcode": "94720"}, "LBNL": {"City": "Berkeley", "Country": "United States", "ID": 10069, "Latitude": 37.866825, "LongName": "LBNL", "Longitude": -122.3, "Name": "LBNL", "State": "CA", "Zipcode": "94720"}, "LONI_LSU": {"City": "Baton Rouge", "Country": "United States", "Description": "LONI resources located at Louisiana State University", "ID": 10014, "Latitude": 30.413299, "LongName": "Louisiana Optical Network Initiative", "Longitude": -91.17918, "Name": "LONI_LSU", "State": "LA", "Zipcode": "70803"}, "LSU - Deep Bayou": {"City": "Baton Rouge", "Country": "United States", "Description": "The Louisiana State University Deep Bayou cluster", "ID": 10290, "Latitude": 30.4132625, "LongName": "Louisiana State University - Deep Bayou", "Longitude": -91.182191, "Name": "LSU - Deep Bayou", "State": "Louisiana", "Zipcode": "70803"}, "LSU QB2": {"City": "Baton Rouge", "Country": "United States", "Description": "The Louisiana State University LSU_QB2 cluster", "ID": 10284, "Latitude": 30.4132625, "LongName": "Louisiana State University LSU_QB2", "Longitude": -91.182191, "Name": "LSU QB2", "State": "Louisiana", "Zipcode": "70803"}, "LSU SuperMIC": {"City": "Baton Rouge", "Country": "United States", "Description": "The Louisiana State University LSU_SuperMIC cluster", "ID": 10245, "Latitude": 30.4132625, "LongName": "Louisiana State University LSU_SuperMIC", "Longitude": -91.182191, "Name": "LSU SuperMIC", "State": "Louisiana", "Zipcode": "70803"}, "LU HEP": {"City": "Langston", "Country": "United States", "ID": 10108, "Latitude": 35.94565, "Longitude": -97.260064, "Name": "LU HEP", "State": "OK", "Zipcode": "73050"}, "LUCCRE": {"City": "Langston", "Country": "United States", "ID": 10184, "Latitude": 35.945191, "Longitude": -97.259847, "Name": "LUCCRE", "Zipcode": "73050"}, "LaTech": {"City": "Ruston", "Country": "United States", "ID": 10015, "Latitude": 32.525499, "Longitude": -92.645398, "Name": "LaTech", "State": "LA", "Zipcode": "71272"}, "Lafayette College": {"AddressLine1": "730 High St", "City": "Easton", "Country": "United States", "Description": "Lafayette College ITS cluster", "ID": 10344, "Latitude": 40.6985, "Longitude": 75.2101, "Name": "Lafayette College", "State": "PA", "Zipcode": "18042"}, "Lamar Cluster": {"AddressLine1": "907 Iowa Ave", "AddressLine2": "Lamar University", "City": "Beaumont", "Country": "USA", "Description": "Lamar University Cluster", "ID": 10295, "Latitude": 30.038388, "LongName": "Lamar University", "Longitude": -94.074729, "Name": "Lamar Cluster", "State": "TX", "Zipcode": "77705"}, "Lancium": {"AddressLine1": "6006 Thomas Rd", "City": "Houston", "Country": "United States", "Description": "Carbon neutral cloud computing provider", "ID": 10313, "Latitude": 30.06, "LongName": "Lancium", "Longitude": -95.13, "Name": "Lancium"}, "Langston University": {"ID": 10328, "Latitude": 35.94624880950671, "LongName": "Langston University", "Longitude": -97.26299283274462, "Name": "Langston University"}, "Lehigh - Hawk": {"AddressLine1": "8B E. Packer Ave", "AddressLine2": "Room 172", "City": "Bethlehem", "Country": "USA", "Description": "NSF Award ID 2019035 Computing Cluster", "ID": 10298, "Latitude": 40.609049, "LongName": "Lehigh University Hawk Cluster", "Longitude": -75.378569, "Name": "Lehigh - Hawk", "State": "Pennsylvania", "Zipcode": "18015"}, "Lehigh Coral": {"City": "Bethlehem", "Country": "United States", "ID": 10025, "Latitude": 40.601261, "Longitude": -75.37542, "Name": "Lehigh Coral", "State": "PA", "Zipcode": "18015"}, "Livermore Computing": {"AddressLine1": "7000 East Avenue", "City": "Livermore", "Country": "United States", "Description": "Computing Center for LLNL", "ID": 10125, "Latitude": 37.68691, "Longitude": -121.70445, "Name": "Livermore Computing", "State": "CA", "Zipcode": "94550"}, "Louisiana State University Health Sciences Center": {"AddressLine1": "433 Bolivar Street", "City": "New Orleans", "Country": "United States", "Description": "Louisiana State University Health Sciences Center", "ID": 10304, "Latitude": 29.958, "LongName": "Louisiana State University Health Sciences Center", "Longitude": -90.083, "Name": "Louisiana State University Health Sciences Center", "State": "Louisiana", "Zipcode": 70112}, "MANLAN": {"City": "New York", "Country": "United States", "Description": "ESnet/Internet2 PoP in  New York", "ID": 10196, "Latitude": 37.401394, "LongName": "Manhattan Landing", "Longitude": -116.867846, "Name": "MANLAN", "State": "NY", "Zipcode": "10002"}, "MIT CMS": {"City": "Cambridge", "Country": "United States", "ID": 10059, "Latitude": 42.364347, "Longitude": -71.2, "Name": "MIT CMS", "State": "MA", "Zipcode": "02139"}, "MIT CMS T3": {"City": "Cambridge", "Country": "United States", "ID": 10178, "Latitude": 42.364347, "Longitude": -71.2, "Name": "MIT CMS T3", "State": "MA", "Zipcode": "02139"}, "MIT LIGO": {"City": "Cambridge", "Country": "United States", "ID": 10034, "Latitude": 42.364347, "Longitude": -71.10431, "Name": "MIT LIGO", "State": "MA", "Zipcode": "02139"}, "MIT_SUBMIT": {"AddressLine1": "77 Massachusetts Avenue", "AddressLine2": "Building 24", "City": "Cambridge", "Country": "United States", "Description": "MIT virtual center for job submission to on- and off-site resources.", "ID": 10215, "Latitude": 42.360593, "Longitude": -71.092908, "Name": "MIT_SUBMIT", "State": "MA", "Zipcode": "02139"}, "MSU OSG": {"City": "East Lansing", "Country": "United States", "Description": "D0 and Atlas Tier3 of the High Energy Physics Group at Michigan State University", "ID": 10018, "Latitude": 42.603642, "LongName": "MSU OSG", "Longitude": -84.79248, "Name": "MSU OSG", "State": "MI", "Zipcode": "48824"}, "MWT2 ATLAS IU": {"City": "Bloomington", "Country": "United States", "ID": 10048, "Latitude": 39.16454, "Longitude": -86.52471, "Name": "MWT2 ATLAS IU", "State": "IN", "Zipcode": "47405"}, "MWT2 ATLAS UC": {"City": "Chicago", "Country": "United States", "ID": 10053, "Latitude": 41.779384, "Longitude": -87.7, "Name": "MWT2 ATLAS UC", "State": "IL", "Zipcode": "60637"}, "MWT2 OSG": {"City": "Chicago", "Country": "United States", "Description": "MWT2 OSG infrastructure", "ID": 10248, "Latitude": 41.790593, "Longitude": -87.600936, "Name": "MWT2 OSG", "State": "IL", "Zipcode": "60637"}, "MWT2-UIUC": {"City": "Urbana", "Country": "United States", "Description": "University of Illinois at Urbana-Champaign's Campus Cluster for MWT2", "ID": 10311, "Latitude": 40.109647, "LongName": "University of Illinois at Urbana-Champaign Campus Cluster", "Longitude": -88.3, "Name": "MWT2-UIUC", "State": "IL", "Zipcode": "61801"}, "McGill HEP": {"City": "Montreal", "Country": "Canada", "ID": 10021, "Latitude": 45.32, "Longitude": -73.38, "Name": "McGill HEP", "Zipcode": "H3A 2T5"}, "Missouri University of Science and Technology": {"ID": 10343, "Latitude": 37.95371623950301, "LongName": "Missouri University of Science & Technology", "Longitude": -91.77556272925655, "Name": "Missouri University of Science and Technology"}, "NBI": {"AddressLine1": "Blegdamsvej 17", "City": "Copenhagen OE", "Country": "Denmark", "Description": "Niels Bohr Institute", "ID": 10252, "Latitude": 55.6969496, "LongName": "Niels Bohr Institute", "Longitude": 12.5693849, "Name": "NBI", "Zipcode": 2100}, "NCSA": {"City": "Urbana", "Country": "United States", "ID": 10079, "Latitude": 40.109647, "Longitude": -88.3, "Name": "NCSA", "State": "IL", "Zipcode": "61801"}, "NCSU - HPC": {"AddressLine1": "2101 Hillsborough Street", "City": "Raleigh", "Country": "USA", "Description": "HPC group of North Carolina State University", "ID": 10308, "Latitude": 35.78, "LongName": "North Carolina State University", "Longitude": -78.67, "Name": "NCSU - HPC", "State": "North Carolina"}, "NDSU-CCAST": {"AddressLine1": "1340 Administration Ave", "City": "Fargo", "Country": "United States", "Description": "North Dakota State University Center for Computationally Assisted Science and Technology", "ID": 10235, "Latitude": 46.897592, "Longitude": -96.802372, "Name": "NDSU-CCAST", "State": "ND", "Zipcode": "58105"}, "ND_CAML": {"City": "Notre Dame", "Country": "United States", "ID": 10275, "Latitude": 41.701415, "Longitude": -86.24498, "Name": "ND_CAML", "State": "IN", "Zipcode": "46556"}, "NERSC": {"City": "Berkeley", "Country": "United States", "ID": 10037, "Latitude": 37.866825, "Longitude": -122.253582, "Name": "NERSC", "State": "CA", "Zipcode": "94720"}, "NIU ATLAS T3": {"AddressLine1": "Northern Illinois University", "City": "DeKalb", "Country": "United States", "ID": 10158, "Latitude": 41.932271, "Longitude": -88.765218, "Name": "NIU ATLAS T3", "State": "IL", "Zipcode": "60115"}, "NSF": {"City": "Arlington", "Country": "United States", "ID": 10078, "Latitude": 38.87972, "Longitude": -77.110817, "Name": "NSF", "State": "VA", "Zipcode": "22230"}, "NU Tier3": {"AddressLine1": "2020 Ridge Ave", "City": "Evanston", "Country": "United States", "Description": "Tier3 Facility for Northwestern University's High Energy Physics Group, analyzing data from the CMS collaboration at CERN.", "ID": 10183, "Latitude": 42.05408, "LongName": "Northwestern University Tier3 CMS", "Longitude": -87.68809, "Name": "NU Tier3", "State": "IL", "Zipcode": "60201"}, "NUMEP-OSG": {"AddressLine1": "2020 Ridge Ave.", "City": "Evanston", "Country": "United States", "Description": "Northwestern University Medium Energy Physics Group", "ID": 10190, "Latitude": 42.05408, "LongName": "NU MEP OSG", "Longitude": -87.68809, "Name": "NUMEP-OSG", "State": "IL", "Zipcode": "60201"}, "NWICG_NDCMS": {"City": "Notre Dame", "Country": "United States", "ID": 10071, "Latitude": 41.701415, "Longitude": -86.24498, "Name": "NWICG_NDCMS", "State": "IN", "Zipcode": "46556"}, "NYSGRID Buffalo": {"City": "Buffalo", "Country": "United States", "ID": 10031, "Latitude": 42.768413, "Longitude": -78.9, "Name": "NYSGRID Buffalo", "State": "NY", "Zipcode": "14260"}, "NYSGRID Cornell": {"AddressLine1": "Rhodes Hall", "City": "Ithaca", "Country": "United States", "ID": 10028, "Latitude": 42.449454, "Longitude": -76.49685, "Name": "NYSGRID Cornell", "State": "NY", "Zipcode": "14853"}, "NYSGRID RIT": {"City": "rochester", "Country": "United States", "ID": 10087, "Latitude": 43.088072, "LongName": "NYSGRID RIT", "Longitude": -77.677889, "Name": "NYSGRID RIT", "State": "ny", "Zipcode": "14623"}, "NYSGRID-CUNY-GRID": {"AddressLine1": "365 Fifth Avenue", "City": "New York", "Country": "United States", "ID": 10095, "Latitude": 40.748362, "LongName": "The City University of New York", "Longitude": -73.984509, "Name": "NYSGRID-CUNY-GRID", "State": "NY", "Zipcode": "10016"}, "NYSGRID_ALBANY": {"City": "Albany", "Country": "United States", "ID": 10097, "Latitude": 42.651728, "Longitude": -73.755877, "Name": "NYSGRID_ALBANY", "State": "NY", "Zipcode": "12204"}, "NYU ATLAS Tier3": {"City": "New York", "Country": "United States", "Description": "Tier3g cluster devoted to the analysis of the data collected by the ATLAS detector.", "ID": 10144, "Latitude": 40.729942, "LongName": "NYU ATLAS Tier3", "Longitude": -73.994486, "Name": "NYU ATLAS Tier3", "State": "NY", "Zipcode": "10003"}, "Nebraska-CMS": {"AddressLine1": "118 Schorr Center", "City": "Lincoln", "Country": "United States", "Description": "Nebraska CMS T2", "ID": 10135, "Latitude": 40.819655, "Longitude": -96.705694, "Name": "Nebraska-CMS", "State": "NE", "Zipcode": "68588"}, "Nebraska-Lincoln": {"AddressLine1": "118 Schorr Center", "City": "Lincoln", "Country": "United States", "Description": "The Holland Computing Center at the University of Nebraska-Lincoln", "ID": 10065, "Latitude": 40.819818, "Longitude": -96.705651, "Name": "Nebraska-Lincoln", "State": "NE", "Zipcode": "68588"}, "Nebraska-Omaha": {"AddressLine1": "1110 South 67th Street", "City": "Omaha", "Country": "United States", "Description": "The Holland Computing Center at the University of Nebraska-Omaha", "ID": 10103, "Latitude": 41.247321, "Longitude": -96.016817, "Name": "Nebraska-Omaha", "State": "NE", "Zipcode": "68182-0694"}, "Nevis": {"Country": "United States", "ID": 10137, "Latitude": 41.027292, "Longitude": -73.872435, "Name": "Nevis", "State": "NY", "Zipcode": "10533"}, "New Mexico State AggieGrid": {"AddressLine1": "1780 E University Ave", "City": "Las Cruces", "Country": "United States", "Description": "AggieGrid is a scavenging cluster running on New Mexico State computer lab workstations", "ID": 10241, "Latitude": 32.278267, "LongName": "New Mexico State University AggieGrid", "Longitude": -106.747541, "Name": "New Mexico State AggieGrid", "State": "New Mexico", "Zipcode": "88003"}, "New Mexico State Discovery": {"AddressLine1": "1780 E University Ave", "City": "Las Cruces", "Country": "United States", "Description": "Slurm HPC system at New Mexico State", "ID": 10239, "Latitude": 32.278267, "LongName": "New Mexico State University Discovery Cluster", "Longitude": -106.747541, "Name": "New Mexico State Discovery", "State": "New Mexico", "Zipcode": "88003"}, "Nikhef": {"AddressLine1": "Science Park 105", "City": "Amsterdam", "Country": "Netherlands", "Description": "Nikhef is the Dutch National Institute for Subatomic Physics that performs research in particle physics and astroparticle physics. Nikhef provides distributed computing resources to the Dutch National e-Infrastructure, serving various users from high-energy physics to the life sciences and humanities.", "ID": 10257, "Latitude": 52.3564, "LongName": "Nikhef", "Longitude": 4.9508, "Name": "Nikhef", "State": "North Holland", "Zipcode": "1098XG"}, "ODU - Ubuntu": {"AddressLine1": null, "City": "Norfolk", "Country": "USA", "Description": "Old Dominion University Ubuntu Cluster", "ID": 10303, "Latitude": 36.8857071961869, "LongName": "Old Dominion University", "Longitude": -76.30770625583946, "Name": "ODU - Ubuntu", "State": "VA", "Zipcode": "23529"}, "ORNL": {"AddressLine1": "1 Bethel Valley Road", "City": "Oak Ridge", "Country": "United States", "Description": "Institutional computing center for ORNL", "ID": 10274, "Latitude": 36, "LongName": "Oak Ridge National Lab", "Longitude": -84, "Name": "ORNL", "Zipcode": "37831"}, "ORNL NSTG": {"City": "Oak Ridge", "Country": "United States", "ID": 10003, "Latitude": 36.105971, "Longitude": -84.195796, "Name": "ORNL NSTG", "State": "TN", "Zipcode": "37831"}, "OSC": {"City": "Columbus", "Country": "United States", "ID": 10174, "Latitude": 39.999742, "Longitude": -83.042908, "Name": "OSC", "State": "Ohio", "Zipcode": "43212"}, "OSG GOC": {"City": "Bloomington", "Country": "United States", "ID": 10088, "Latitude": 39.14424, "Longitude": -86.549134, "Name": "OSG GOC", "State": "Indiana", "Zipcode": "47403"}, "OSG Security Services": {"City": "Bloomington", "Country": "United States", "ID": 10118, "Latitude": 39.180061, "LongName": "OSG Security Services", "Longitude": -86.539629, "Name": "OSG Security Services", "State": "In", "Zipcode": "47404"}, "OSG-Rice": {"City": "Houston", "Country": "United States", "ID": 10094, "Latitude": 29.716318, "Longitude": -95.409334, "Name": "OSG-Rice", "State": "TX", "Zipcode": "77030"}, "OSGSC_UC": {"City": "Chicago", "Country": "United States", "Description": "ITB site for Tier 3 and small sites prototyping and testing at the University of Chicago.", "ID": 10134, "Latitude": 41.790593, "Longitude": -87.600936, "Name": "OSGSC_UC", "State": "IL", "Zipcode": "60637"}, "OSG_GP_CE01": {"City": "Tarrytown", "Country": "United States", "ID": 10075, "Latitude": 41.080196, "Longitude": -73.85721, "Name": "OSG_GP_CE01", "State": "NY", "Zipcode": "10591"}, "OSG_US_DANFORTH_ce04": {"AddressLine1": "975 North Warson Road", "City": "St. Louis", "Country": "United States", "Description": "Hosted CE submitting to the Donald Danforth cluster", "ID": 10228, "Latitude": 38.674584, "Longitude": -90.397189, "Name": "OSG_US_DANFORTH_ce04", "State": "Missouri", "Zipcode": "63132"}, "OSG_US_GSU_ACORE": {"City": "Atlanta", "Country": "United States", "Description": "Hosted CE for the ACORE resource", "ID": 10227, "Latitude": 33.752971, "Longitude": -84.385318, "Name": "OSG_US_GSU_ACORE", "State": "GA", "Zipcode": "30302"}, "OSG_US_NDSU_CCAST_CLUSTER2": {"AddressLine1": "1340 Administration Ave", "City": "Fargo", "Country": "United States", "Description": "Entry for NDSU's Hosted CE", "ID": 10235, "Latitude": 46.897592, "Longitude": -96.802372, "Name": "OSG_US_NDSU_CCAST_CLUSTER2", "State": "ND", "Zipcode": "58105"}, "OSG_US_USD_LEGACY": {"AddressLine1": "414 E Clark St", "City": "Vermillion", "Country": "United States", "Description": "Hosted CE for Legacy cluster at University of South Dakota", "ID": 10230, "Latitude": 42.788065, "Longitude": -96.924136, "Name": "OSG_US_USD_LEGACY", "State": "SD", "Zipcode": "57069"}, "OSG_US_WSU_GRID_ce2": {"AddressLine1": "5925 Woodward Ave", "City": "Detroit", "Country": "United States", "Description": "Wayne State cluster accessed through hosted", "ID": 10229, "Latitude": 42.363855, "Longitude": -83.070494, "Name": "OSG_US_WSU_GRID_ce2", "State": "MI", "Zipcode": "48202"}, "OSU-CMS": {"AddressLine1": "191 W Woodruff Ave", "City": "Columbus", "Country": "United States", "Description": "CMS Tier3 at The Ohio State University", "ID": 10100, "Latitude": 40.003407, "Longitude": -83.014476, "Name": "OSU-CMS", "State": "OH", "Zipcode": "43210"}, "OU ATLAS": {"City": "Norman", "Country": "United States", "ID": 10049, "Latitude": 35.207175, "Longitude": -97.447073, "Name": "OU ATLAS", "State": "OK", "Zipcode": "73019"}, "OU DOSAR": {"City": "Norman", "Country": "United States", "ID": 10016, "Latitude": 35.207171, "Longitude": -97.447084, "Name": "OU DOSAR", "State": "OK", "Zipcode": "73019"}, "OU HEP": {"City": "Norman", "Country": "United States", "ID": 10050, "Latitude": 35.207175, "Longitude": -97.447051, "Name": "OU HEP", "State": "OK", "Zipcode": "73019"}, "Oklahoma State University": {"ID": 10324, "Latitude": 36.12722289343262, "LongName": "Oklahoma State University", "Longitude": -97.07367928670455, "Name": "Oklahoma State University"}, "Oklahoma_Hosted_Site": {"AddressLine2": "107 N MONROE STREET", "City": "Stillwater", "Country": "United States", "Description": "Hosted BOSCO CE for the OSU Cowboy cluster", "ID": 10223, "Latitude": 36.1230911, "Longitude": -97.0723655, "Name": "Oklahoma_Hosted_Site", "State": "OK", "Zipcode": "74078"}, "Oral Roberts University": {"ID": 10322, "Latitude": 36.051059306157484, "LongName": "Oral Roberts University", "Longitude": -95.95360712903401, "Name": "Oral Roberts University"}, "PDX-OIT": {"AddressLine1": "1825 SW Broadway", "City": "Portland", "Country": "United States", "Description": "Portland State University", "ID": 10339, "Latitude": 45.5111153, "LongName": "Portland State University", "Longitude": -122.6855323, "Name": "PDX-OIT", "Zipcode": 97201}, "PIC": {"AddressLine1": "Edifici D Campus UAB", "City": "Bellaterra", "Country": "Spain", "Description": "PIC Tier 1", "ID": 10271, "Latitude": 41.5, "LongName": "Port Informacio Cientifica", "Longitude": 2.11, "Name": "PIC", "Zipcode": "08193"}, "PNNL_DC": {"City": "Richland", "Country": "United States", "ID": 10172, "Latitude": 46.347283, "LongName": "PNNL Distributed Computing", "Longitude": -119.307833, "Name": "PNNL_DC", "State": "WA", "Zipcode": "99354"}, "PNNL_OSG2": {"City": "Richland", "Country": "United States", "ID": 10175, "Latitude": 46.347283, "Longitude": -119.307833, "Name": "PNNL_OSG2", "Zipcode": "99354"}, "PPCF_ATLAS": {"AddressLine1": "Orchard Rd.", "City": "Hampton", "Country": "United States", "Description": "The Atlas Tier3 Cloud in Particle Physics Computing Facility at Hampton University.", "ID": 10145, "Latitude": 37.019576, "LongName": "Hampton ATLAS Tier3", "Longitude": -76.336344, "Name": "PPCF_ATLAS", "State": "VA", "Zipcode": "23668"}, "PSC - Bridges": {"AddressLine1": "300 S Craig St", "City": "Pittsburgh", "Country": "United States", "Description": "The Pittsburgh Supercomputing Center PSC-Bridges cluster", "ID": 10247, "Latitude": 40.444035, "LongName": "Pittsburgh Supercomputing Center", "Longitude": -79.959987, "Name": "PSC - Bridges", "State": "Pennsylvania", "Zipcode": "15213"}, "PSU LIGO": {"City": "University Park", "Country": "United States", "ID": 10035, "Latitude": 40.806956, "Longitude": -77.86281, "Name": "PSU LIGO", "State": "PA", "Zipcode": "16802"}, "Penn ATLAS Tier 3": {"City": "Philadelphia", "Country": "United States", "ID": 10121, "Latitude": 39.949424, "Longitude": -75.171847, "Name": "Penn ATLAS Tier 3", "State": "PA", "Zipcode": "19104"}, "Pervasive Technology Institute": {"City": "Bloomington", "Country": "United States", "ID": 10292, "Latitude": 39.14351, "Longitude": -86.523608, "Name": "Pervasive Technology Institute", "Zipcode": "47404"}, "Pittsburgh Supercomputing Center": {"AddressLine1": "300 S Craig St", "City": "Pittsburgh", "Country": "United States", "Description": "The Pittsburgh Supercomputing Center PSC-Bridges cluster", "ID": 10296, "Latitude": 40.444035, "LongName": "Pittsburgh Supercomputing Center", "Longitude": -79.959987, "Name": "Pittsburgh Supercomputing Center", "State": "Pennsylvania", "Zipcode": "15213"}, "Princeton_ICSE": {"City": "Princeton", "Country": "United States", "Description": "CMS Tier3 site", "ID": 10116, "Latitude": 40.340526, "Longitude": -74.653473, "Name": "Princeton_ICSE", "State": "NJ", "Zipcode": "08544"}, "PuNDIT": {"City": "Atlanta", "Country": "United States", "Description": "PuNDIT Testbed", "ID": 10199, "Latitude": 33.776974, "Longitude": -84.395951, "Name": "PuNDIT", "State": "GA", "Zipcode": "30330"}, "Purdue Anvil": {"City": "West Lafayette", "Country": "United States", "Description": "Anvil is a supercomputer at Purdue University", "ID": 10316, "Latitude": 40.423004, "LongName": "Purdue University Anvil Supercomputer", "Longitude": -86.910768, "Name": "Purdue Anvil", "State": "Indiana", "Zipcode": "47907"}, "Purdue CMS": {"City": "West Lafayette", "Country": "United States", "ID": 10060, "Latitude": 40.423004, "Longitude": -86.910768, "Name": "Purdue CMS", "State": "IN", "Zipcode": "47907"}, "Purdue Geddes": {"AddressLine1": "155 South Grant St.", "City": "West Lafayette", "Country": "USA", "Description": "Geddes is a Kubernetes cluster operated by the Research Computing department at Purdue University", "ID": 10282, "Latitude": 40.423004, "LongName": "Purdue University Geddes Kubernetes Cluster", "Longitude": -86.910768, "Name": "Purdue Geddes", "State": "Indiana", "Zipcode": "47907"}, "Purdue nanoHUB": {"City": "West Lafayette", "Country": "United States", "ID": 10306, "Latitude": 40.423004, "Longitude": -86.910768, "Name": "Purdue nanoHUB", "State": "IN", "Zipcode": "47907"}, "RENCI": {"City": "Chapel Hill", "Country": "United States", "ID": 10086, "Latitude": 35.56, "Longitude": -79.02, "Name": "RENCI", "State": "NC", "Zipcode": "27514"}, "Rhodes-HPC": {"AddressLine1": "2000 North Parkway", "City": "Memphis", "Country": "United States", "Description": "Rhodes College", "ID": 10345, "Latitude": 35.1555409, "LongName": "Rhodes College", "Longitude": -89.991518, "Name": "Rhodes-HPC"}, "Rice-CRC": {"AddressLine1": "6100 Main Street", "City": "Houston", "Country": "United States", "Description": "Rice University's Center for Research Computing", "ID": 10314, "Latitude": 29.76, "LongName": "Rice University's Center for Research Computing", "Longitude": -95.36, "Name": "Rice-CRC", "State": "Texas", "Zipcode": "77005"}, "Rutgers OARC": {"AddressLine1": "136 Frelinghuysen Road", "City": "Piscataway", "Country": "United States", "ID": 10307, "Latitude": 40.522918, "Longitude": -74.464514, "Name": "Rutgers OARC", "State": "New Jersey", "Zipcode": "08854-8019"}, "SAMPA": {"AddressLine1": "Rua do Matao, Travessa R 187", "AddressLine2": "Cidade Universitaria", "City": "Sao Paulo", "Country": "Brazil", "Description": "SAMPA site is T2 of WLHC", "ID": 10200, "Latitude": -23.559086, "LongName": "GRupo de \u00cdons PEsados Relativ\u00edsticos - GRIPER", "Longitude": -46.735994, "Name": "SAMPA", "State": "SP", "Zipcode": "05508-900"}, "SBU Atlas Tier3": {"AddressLine1": "Physics Building, room D-132", "AddressLine2": "Stony Brook University", "City": "Stony Brook", "Country": "United States", "Description": "Stony Brook Atlas Tier3 Cluster", "ID": 10124, "Latitude": 40.916269, "Longitude": -73.126116, "Name": "SBU Atlas Tier3", "State": "New York", "Zipcode": "11794-3800"}, "SDSC - Triton Stratus": {"AddressLine1": "9500 Gilman Drive", "City": "La Jolla", "Country": "United States", "Description": "Triton Stratus is a High-Performance Computing (HPC) cluster operated by the San Diego Supercomputer Center", "ID": 10279, "Latitude": 32.88431, "LongName": "SDSC - Triton Stratus", "Longitude": -117.239614, "Name": "SDSC - Triton Stratus", "State": "CA", "Zipcode": "92093"}, "SDSC Flatiron": {"City": "La Jolla", "Country": "United States", "ID": 10242, "Latitude": 32.88431, "Longitude": -117.239614, "Name": "SDSC Flatiron", "State": "CA", "Zipcode": "92093"}, "SDSC OSG": {"City": "La Jolla", "Country": "United States", "ID": 10243, "Latitude": 32.88431, "Longitude": -117.239614, "Name": "SDSC OSG", "State": "CA", "Zipcode": "92093"}, "SDSC-Expanse": {"AddressLine1": "10100 Hopkins Drive", "City": "La Jolla", "Country": "United States", "Description": "Expanse is a High-Performance Computing (HPC) cluster operated by the San Diego Supercomputer Center", "ID": 10281, "Latitude": 32.8844113, "LongName": "SDSC-Expanse", "Longitude": -117.2412158, "Name": "SDSC-Expanse", "State": "CA", "Zipcode": "92093"}, "SIUE - CC": {"AddressLine1": "SIUE State Route 157", "City": "Edwardsville", "Country": "United States", "Description": "SIUE CC Cluster", "ID": 10299, "Latitude": 38.7931, "LongName": "Southern Illinois University Edwardsville CC Cluster", "Longitude": -89.9961, "Name": "SIUE - CC", "State": "Illinois", "Zipcode": "62026"}, "SIUE - OS": {"AddressLine1": "SIUE State Route 157", "City": "Edwardsville", "Country": "United States", "Description": "SIUE Shared Openstack Cluster", "ID": 10276, "Latitude": 38.7931, "LongName": "Southern Illinois University Edwardsville OpenStack", "Longitude": -89.9961, "Name": "SIUE - OS", "State": "Illinois", "Zipcode": "62026"}, "SLAC": {"City": "Stanford", "Country": "United States", "Description": "This used to be blank.", "ID": 10039, "Latitude": 37.424571, "Longitude": -122.164879, "Name": "SLAC", "State": "CA", "Zipcode": "94305"}, "SMU Physics": {"City": "Dallas", "Country": "United States", "ID": 10052, "Latitude": 32.836094, "Longitude": -96.79524, "Name": "SMU Physics", "State": "TX", "Zipcode": "75205"}, "SMU_HPC": {"AddressLine1": "3215 Daniel Ave", "City": "Dallas", "Country": "United States", "Description": "Southern Methodist University HPC", "ID": 10105, "Latitude": 32.846297, "Longitude": -96.783886, "Name": "SMU_HPC", "State": "TX", "Zipcode": "75205"}, "SPRACE": {"AddressLine1": "R. Dr. Bento Teobaldo Ferraz 271 - Bl. II - Barra Funda 01140-070 - S\u00e3o Paulo", "City": "S\u00e3o Paulo", "Country": "Brazil", "ID": 10017, "Latitude": -23.52433, "LongName": "SAO PAULO RESEARCH AND ANALYSIS CENTER", "Longitude": -46.665469, "Name": "SPRACE", "State": "Sao Paulo", "Zipcode": "01140-070"}, "STANFORD_HOSTED": {"AddressLine1": "275 Panama St", "City": "Stanford", "Country": "United States", "ID": 10221, "Latitude": 37.428596, "Longitude": -122.177514, "Name": "STANFORD_HOSTED", "State": "CA", "Zipcode": "94305"}, "STAR": {"AddressLine2": "710 N Lakeshore Drive", "City": "Chicago", "Country": "United States", "Description": "The Starlight PoP in Chicago run by Northwestern/MREN", "ID": 10197, "Latitude": 37.401394, "LongName": "StarLight", "Longitude": -116.867846, "Name": "STAR", "State": "IL", "Zipcode": "60611"}, "STAR Birmingham": {"City": "Birmingham", "Country": "United Kingdom", "ID": 10041, "Latitude": 52.29, "Longitude": 1.53, "Name": "STAR Birmingham"}, "STAR Brookhaven": {"City": "Upton", "Country": "United States", "ID": 10040, "Latitude": 40.8688, "Longitude": -72.878863, "Name": "STAR Brookhaven", "State": "NY", "Zipcode": "11973"}, "STAR WSU": {"City": "Detroit", "Country": "United States", "ID": 10043, "Latitude": 42.348937, "Longitude": -83.08994, "Name": "STAR WSU", "State": "MI", "Zipcode": "48208"}, "STAR-Online": {"City": "Upton", "Country": "United States", "Description": "A relatively small pool (initially 29 hosts).  It is only accessible from the BNL site, and is only for STAR jobs.", "ID": 10205, "Latitude": 40.879129, "Longitude": -72.8767, "Name": "STAR-Online", "State": "NY", "Zipcode": "11973"}, "SU ITS": {"City": "Syracuse", "Country": "United States", "Description": "Syracuse University Information Technology Services Research Clusters", "ID": 10194, "Latitude": 43.0385961, "LongName": "Syracuse University Information Techology Services", "Longitude": -76.13268340000002, "Name": "SU ITS", "State": "NY", "Zipcode": "13244"}, "SUGWG": {"City": "Syracuse", "Country": "United States", "ID": 10208, "Latitude": 37.401394, "LongName": "Syracuse University Gravitational Wave Group", "Longitude": -116.867846, "Name": "SUGWG", "State": "NY", "Zipcode": "13244"}, "SUSQU": {"AddressLine1": "514 University Ave", "City": "Selinsgrove", "Country": "United States", "Description": "Susquehanna University Physics Dept.", "ID": 10142, "Latitude": 40.798506, "LongName": "Susquehanna University Physics Dept.", "Longitude": -76.873155, "Name": "SUSQU", "State": "PA", "Zipcode": "17870"}, "SUT - OzStar": {"AddressLine1": "427-451 Burwood Rd", "City": "Hawthorn", "Country": "Australia", "Description": "OzStar Cluster", "ID": 10287, "Latitude": -37.822741, "LongName": "Swinburne University of Technology", "Longitude": 145.038203, "Name": "SUT - OzStar", "State": "Victoria", "Zipcode": "3122"}, "SWT2 ATLAS UTA": {"City": "Arlington", "Country": "United States", "ID": 10055, "Latitude": 32.771419, "Longitude": -97.291484, "Name": "SWT2 ATLAS UTA", "State": "TX", "Zipcode": "76019"}, "SYRA-PATH": {"AddressLine1": "900 South Crouse Ave", "City": "Syracuse", "Country": "United States", "Description": "Resources owned by the PATh project located at Syracuse University.", "ID": 10346, "Latitude": 43.0391534, "LongName": "PATh Resources at Syracuse", "Longitude": -76.1373045, "Name": "SYRA-PATH", "State": "New Yorkk", "Zipcode": "13244"}, "San Diego Supercomputer Center": {"AddressLine1": "10100 Hopkins Drive", "City": "La Jolla", "Country": "United States", "Description": "San Diego Supercomputer Center", "ID": 10302, "Latitude": 32.8844113, "LongName": "San Diego Supercomputer Center", "Longitude": -117.2412158, "Name": "San Diego Supercomputer Center", "State": "CA", "Zipcode": "92093"}, "School of Physics and Astronomy": {"AddressLine1": "Tate Lab of Physics", "AddressLine2": "116 Church Street Se", "City": "Minneapolis", "Country": "United States", "ID": 10113, "Latitude": 44.988841, "LongName": "University of Minnesota School of Physics and Astronomy", "Longitude": -93.264999, "Name": "School of Physics and Astronomy", "State": "Minnesota", "Zipcode": "55455"}, "Scotgrid ECDF": {"AddressLine1": "Old College, South Bridge", "City": "Edinburgh", "Country": "United Kingdom", "Description": "Scotgrid facility at the University of Edinburgh", "ID": 10317, "Latitude": 55.9445, "LongName": "Scotgrid Edinburgh Compute and Data Facility", "Longitude": -3.1892, "Name": "Scotgrid ECDF", "Zipcode": "EH8 9YL"}, "South Dakota School of Mines and Technology": {"ID": 10327, "Latitude": 44.07438180341191, "LongName": "South Dakota School of Mines and Technology", "Longitude": -103.20595245949066, "Name": "South Dakota School of Mines and Technology"}, "South Dakota State University": {"ID": 10323, "Latitude": 44.31931433210406, "LongName": "South Dakota State University", "Longitude": -96.78355038831918, "Name": "South Dakota State University"}, "Southeast Missouri State University": {"ID": 10326, "Latitude": 37.315031870373815, "LongName": "Southeast Missouri State University", "Longitude": -89.52802234434493, "Name": "Southeast Missouri State University"}, "Stampede2": {"AddressLine1": "10100 Burnet Rd", "City": "Austin", "Country": "United States", "Description": "The Texas Advanced Computing Center Stampede2 cluster", "ID": 10246, "Latitude": 30.39017, "LongName": "Texas Advanced Computing Center Stampede2", "Longitude": -97.726038, "Name": "Stampede2", "State": "Texas", "Zipcode": "78758"}, "T2_BR_UERJ": {"AddressLine1": "S\u00e3o Francisco Xavier 524 Third Floor Block A Room 3029A", "City": "Rio de Janeiro", "Country": "Brazil", "ID": 10005, "Latitude": -22.592458, "Longitude": -43.056793, "Name": "T2_BR_UERJ", "State": "Rio de Janeiro", "Zipcode": "20550-013"}, "T3_KR_KISTI": {"AddressLine1": "Gwahangno 335, Yuseong-gu,", "City": "Daejeon", "Country": "South Korea", "Description": "KISTI cms tier3", "ID": 10192, "Latitude": 36.366, "LongName": "T3_KR_KISTI", "Longitude": 127.366, "Name": "T3_KR_KISTI", "Zipcode": "305-806"}, "T3_US_NEU": {"AddressLine1": "360 Huntington Ave", "City": "Boston", "Country": "United States", "Description": "Northeastern University CMS Tier 3", "ID": 10191, "Latitude": 42.33787, "LongName": "Northeastern University CMS Tier 3", "Longitude": -71.08919, "Name": "T3_US_NEU", "State": "MA", "Zipcode": "02115"}, "TACC - Frontera": {"AddressLine1": "10100 Burnet Rd", "City": "Austin", "Country": "United States", "Description": "The Texas Advanced Computing Center Frontera cluster", "ID": 10285, "Latitude": 30.39017, "LongName": "Texas Advanced Computing Center Frontera", "Longitude": -97.726038, "Name": "TACC - Frontera", "State": "Texas", "Zipcode": "78758"}, "TAMU Academy": {"City": "College Station", "Country": "United States", "ID": 10117, "Latitude": 30.619803, "LongName": "TAMU Academy for Advanced Telecommunications and Learning Technologies", "Longitude": -96.342672, "Name": "TAMU Academy", "State": "Texas", "Zipcode": "77843-3139"}, "TAMU Mathematics": {"AddressLine1": "Room 102 Milner Hall", "City": "College Station", "Country": "United States", "ID": 10139, "Latitude": 30.616914, "LongName": "Texas A&M University Department of Mathematics", "Longitude": -96.342888, "Name": "TAMU Mathematics", "State": "TX", "Zipcode": "77843-3368"}, "TCNJ - ELSA": {"AddressLine1": "2000 Pennington Rd, Ewing Township", "City": "Ewing", "Country": "United States", "Description": "The The College of New Jersey TCNJ-ELSA cluster", "ID": 10258, "Latitude": 40.259987, "LongName": "The College of New Jersey", "Longitude": -74.790909, "Name": "TCNJ - ELSA", "State": "New Jersey", "Zipcode": "08618"}, "TIGRE TTU": {"City": "Lubbock", "Country": "United States", "ID": 10044, "Latitude": 33.610018, "Longitude": -101.821292, "Name": "TIGRE TTU", "State": "TX", "Zipcode": "79409"}, "Texas Advanced Computing Center": {"AddressLine1": "10100 Burnet Rd", "City": "Austin", "Country": "United States", "Description": "Texas Advanced Computing Center", "ID": 10293, "Latitude": 30.39017, "LongName": "Texas Advanced Computing Center", "Longitude": -97.726038, "Name": "Texas Advanced Computing Center", "State": "Texas", "Zipcode": "78758"}, "Tufts - Cluster": {"AddressLine1": "169 Holland Street", "AddressLine2": "Tufts University", "City": "Medford", "Country": "USA", "Description": "Tufts Cluster", "ID": 10286, "Latitude": 42.40546, "LongName": "Tufts University", "Longitude": -71.11948, "Name": "Tufts - Cluster", "State": "MA", "Zipcode": "02155"}, "Tufts_ATLAS_Tier3": {"AddressLine1": "169 Holland Street", "AddressLine2": "Tufts University", "City": "Medford", "Country": "United States", "Description": "Shared Linux Cluster", "ID": 10115, "Latitude": 42.40546, "Longitude": -71.11948, "Name": "Tufts_ATLAS_Tier3", "State": "MA", "Zipcode": "02155"}, "UAB Research Computing": {"AddressLine1": "1800 University Blvd", "City": "Birmingham", "Country": "United States", "ID": 10165, "Latitude": 33.50305, "Longitude": -86.801155, "Name": "UAB Research Computing", "State": "AL", "Zipcode": "35212"}, "UARK ACE": {"City": "Fayetteville", "Country": "United States", "ID": 10074, "Latitude": 36.040467, "Longitude": -94.13376, "Name": "UARK ACE", "State": "AR", "Zipcode": "72701"}, "UC Davis CMS T3": {"AddressLine1": "One Shields Ave", "City": "Davis", "Country": "United States", "ID": 10102, "Latitude": 38.536669, "LongName": "University of California, Davis CMS Tier 3", "Longitude": -121.751304, "Name": "UC Davis CMS T3", "State": "CA", "Zipcode": "95616"}, "UCHC_CBG": {"AddressLine1": "University of Connecticut Health Center", "AddressLine2": "263 Farmington Avenue", "City": "Farmington", "Country": "United States", "Description": "A 29 node, 57 CPU Compute Element", "ID": 10093, "Latitude": 41.729962, "LongName": "University of Connecticut Health Center_CompBioGrid", "Longitude": -72.791183, "Name": "UCHC_CBG", "State": "Connecticut", "Zipcode": "06030"}, "UCIT3": {"AddressLine1": "University of California Irvine", "City": "Irvine", "Country": "United States", "Description": "ATLAS UC Irvine Tier-3", "ID": 10126, "Latitude": 33.643474, "LongName": "ATLAS UC Irvine Tier-3", "Longitude": -117.840128, "Name": "UCIT3", "State": "CA", "Zipcode": "92697-4575"}, "UCL-INGRID": {"AddressLine1": "Avenue Theodore Schwann 2", "AddressLine2": "Batiment DC III", "City": "Ottignies-Louvain-la-Neuve", "Country": "Belgium", "Description": "Ingrid cluster of the Cosmology, Particle Physics and Phenomenology (CP3) institute of the Universite catholique de Louvain", "ID": 10283, "Latitude": 50.666707, "LongName": "Universite catholique de Louvain Ingrid cluster", "Longitude": 4.623733, "Name": "UCL-INGRID", "State": "Brabant Wallon", "Zipcode": 1348}, "UCLA CMS Tier3": {"City": "Los Angeles", "Country": "United States", "ID": 10006, "Latitude": 33.786594, "Longitude": -118.298662, "Name": "UCLA CMS Tier3", "State": "CA", "Zipcode": "90095"}, "UCR - HPCC": {"AddressLine1": "900 University Ave", "City": "Riverside", "Country": "United States", "Description": "University of California, Riverside - High Performance Compute Center", "ID": 10337, "Latitude": 33.9754298, "LongName": "University of California, Riverside - High Performance Compute Center", "Longitude": -117.3337905, "Name": "UCR - HPCC"}, "UCR HEP": {"City": "Riverside", "Country": "United States", "ID": 10007, "Latitude": 33.974645, "Longitude": -117.325385, "Name": "UCR HEP", "State": "CA", "Zipcode": "92521"}, "UCSB_MRL": {"ID": 10089, "Name": "UCSB_MRL"}, "UCSD CMS Tier2": {"City": "La Jolla", "Country": "United States", "ID": 10061, "Latitude": 33.016928, "Longitude": -116.846046, "Name": "UCSD CMS Tier2", "State": "CA", "Zipcode": "92093"}, "UCSD OSG": {"City": "La Jolla", "Country": "United States", "ID": 10164, "Latitude": 32.868053, "Longitude": -117.246094, "Name": "UCSD OSG", "Zipcode": "92093"}, "UChicago": {"AddressLine1": "5735 S Ellis ave", "City": "Chicago", "Country": "United States", "Description": "University of Chicago Campus Grid and ITB resources", "ID": 10181, "Latitude": 41.791219, "Longitude": -87.601384, "Name": "UChicago", "State": "IL", "Zipcode": "60637"}, "UColorado_HEP": {"City": "Boulder", "Country": "United States", "ID": 10083, "Latitude": 40.015, "Longitude": -105.27, "Name": "UColorado_HEP", "State": "CO", "Zipcode": "80309"}, "UConn - cedar": {"AddressLine1": "2152 Hillside Road", "City": "Storrs", "Country": "United States", "Description": "The University of Connecticut UConn-cedar cluster", "ID": 10269, "Latitude": 41.8084, "LongName": "University of Connecticut", "Longitude": -72.2495, "Name": "UConn - cedar", "State": "CT", "Zipcode": "06269-3046"}, "UConn-HPC": {"AddressLine1": "196A Auditorium Road U-3138", "City": "Storrs", "Country": "United States", "Description": "Storrs Campus Research Cluster", "ID": 10280, "Latitude": 41.8084, "LongName": "University of Connecticut Storrs HPC Cluster", "Longitude": -72.2495, "Name": "UConn-HPC", "State": "Connecticut", "Zipcode": "06269-3138"}, "UConn-OSG": {"AddressLine1": "2152 Hillside Road", "City": "Storrs", "Country": "United States", "Description": "University of Connecticut at Storrs", "ID": 10109, "Latitude": 41.777201, "LongName": "University of Connecticut", "Longitude": -72.217941, "Name": "UConn-OSG", "State": "CT", "Zipcode": "06269-3046"}, "UConn-Xanadu": {"AddressLine1": "Engineering and Sciences Building (ESB)", "City": "Storrs", "Country": "United States", "Description": "Xanadu HPC Resource", "ID": 10297, "Latitude": 41.8084, "LongName": "University of Connecticut Xanadu HPC Resource", "Longitude": -72.2495, "Name": "UConn-Xanadu", "State": "Connecticut", "Zipcode": "06269-3138"}, "UF HPC": {"City": "Gainsville", "Country": "United States", "ID": 10023, "Latitude": 29.681312, "Longitude": -82.353861, "Name": "UF HPC", "State": "FL", "Zipcode": "32611"}, "UGA Research Computing Center": {"City": "Athens", "Country": "United States", "ID": 10141, "Latitude": 33.945986, "Longitude": -83.375362, "Name": "UGA Research Computing Center", "Zipcode": "30602"}, "UIC Physics": {"City": "Chicago", "Country": "United States", "ID": 10042, "Latitude": 41.875882, "Longitude": -87.65114, "Name": "UIC Physics", "State": "IL", "Zipcode": "60607"}, "UIUC-ICC-SPT": {"City": "Urbana", "Country": "United States", "Description": "University of Illinois at Urbana-Champaign's Campus Cluster", "ID": 10301, "Latitude": 40.109647, "LongName": "University of Illinois at Urbana-Champaign Campus Cluster", "Longitude": -88.3, "Name": "UIUC-ICC-SPT", "State": "IL", "Zipcode": "61801"}, "UJ Research Cluster": {"AddressLine1": "Auckland Park", "City": "Johannesburg", "Country": "South Africa", "Description": "See https://physics.uj.ac.za/cluster", "ID": 10092, "Latitude": -26.18, "Longitude": 27.99, "Name": "UJ Research Cluster", "State": "Gauteng", "Zipcode": "2006"}, "UMD-CMS": {"City": "College Park", "Country": "United States", "ID": 10076, "Latitude": 38.833563, "Longitude": -76.877743, "Name": "UMD-CMS", "State": "MD", "Zipcode": "20742"}, "UMD_SIAB": {"AddressLine1": "College Park", "City": "College", "Country": "United States", "Description": "The University of Maryland UMD_SIAB cluster", "ID": 10253, "Latitude": 38.989697, "LongName": "University of Maryland UMD_SIAB", "Longitude": -76.937759, "Name": "UMD_SIAB", "State": "Maryland", "Zipcode": "20742"}, "UMSNH": {"AddressLine1": "Avenida Francisco J. Mujica S/N", "City": "MORELIA", "Country": "Mexico", "Description": "University of Morelia Michoacan", "ID": 10180, "Latitude": 19.687771, "Longitude": -101.209067, "Name": "UMSNH", "State": "MICHOACAN", "Zipcode": "58030"}, "UMissHEP": {"City": "University", "Country": "United States", "Description": "This is the University of Mississippi's High Energy Physics computing facility.", "ID": 10081, "Latitude": 34.366302, "Longitude": -89.53721, "Name": "UMissHEP", "State": "MS", "Zipcode": "38677"}, "UNIBE-LHEP": {"AddressLine1": "Sidlerstrasse 5", "City": "Bern", "Country": "Switzerland", "ID": 10209, "Latitude": 46.9515, "Longitude": 7.4385, "Name": "UNIBE-LHEP", "Zipcode": "3012"}, "UNL-PATH": {"AddressLine1": "118 Schorr Center", "City": "Lincoln", "Country": "United States", "Description": "Resources owned by the PATh project located at the University of Nebraska-Lincoln", "ID": 10335, "Latitude": 40.819818, "LongName": "PATh Resources at UNL", "Longitude": -96.705651, "Name": "UNL-PATH", "State": "Nebraska", "Zipcode": "68588"}, "UNM HPC": {"City": "Albuquerque", "Country": "United States", "ID": 10009, "Latitude": 35.044339, "Longitude": -106.672872, "Name": "UNM HPC", "State": "NM", "Zipcode": "87131"}, "UPRM_HEP": {"City": "Mayaguez", "Country": "Puerto Rico", "ID": 10133, "Latitude": 18.211578, "Longitude": -67.140884, "Name": "UPRM_HEP", "State": "PR", "Zipcode": "00680"}, "UPittTier3": {"City": "Pittsburgh", "Country": "United States", "ID": 10168, "Latitude": 40.444885, "LongName": "University of Pittsburgh ATLAS Tier3", "Longitude": -79.958067, "Name": "UPittTier3", "State": "PA", "Zipcode": "15260"}, "USCMS-FNAL-XEN": {"City": "Batavia", "Country": "United States", "Description": "Single virtual xen node for Tier 3 support", "ID": 10131, "Latitude": 41.838411, "Longitude": -88.26188, "Name": "USCMS-FNAL-XEN", "State": "IL", "Zipcode": "60510"}, "USP - LCCA": {"AddressLine1": "Av. Prof. Luciano Gualberto, 71, travessa 3", "City": "S\u00e3o Paulo", "Country": "Brazil", "ID": 10136, "Latitude": -23.557103, "LongName": "Universidade de S\u00e3o Paulo - Laborat\u00f3rio de Computa\u00e7\u00e3o Cient\u00edfica Avan\u00e7ada", "Longitude": -46.731999, "Name": "USP - LCCA", "State": "SP", "Zipcode": "05508-010"}, "UTA ATLAS": {"City": "Arlington", "Country": "United States", "ID": 10056, "Latitude": 32.771419, "Longitude": -97.4, "Name": "UTA ATLAS", "State": "TX", "Zipcode": "76019"}, "UTC - Epyc": {"AddressLine1": "735 Vine St", "AddressLine2": "University of Tennessee Chatanooga", "City": "Chatanooga", "Country": "USA", "Description": "University of Tennessee Chatanooga Epyc Cluster", "ID": 10296, "Latitude": 35.046483, "LongName": "University of Tennessee Chatanooga", "Longitude": -85.295502, "Name": "UTC - Epyc", "State": "TN", "Zipcode": "37403"}, "UTD-HEP": {"City": "Dallas", "Country": "United States", "Description": "The University of Texas at Dallas Atlas Tier3gs (aka \"mini-Tier2\") GRID production site", "ID": 10090, "Latitude": 32.734332, "Longitude": -96.709986, "Name": "UTD-HEP", "State": "Texas", "Zipcode": "75080"}, "UVA CS": {"City": "Charlottesville", "Country": "United States", "ID": 10010, "Latitude": 38.040101, "Longitude": -78.485066, "Name": "UVA CS", "State": "VA", "Zipcode": "22904"}, "UW Milwaukee Physics": {"City": "Milwaukee", "Country": "United States", "ID": 10036, "Latitude": 43.011264, "Longitude": -87.958409, "Name": "UW Milwaukee Physics", "State": "WI", "Zipcode": "53201"}, "UWM - NEMO": {"AddressLine1": "Milwaukee, WI 53211, Stati Uniti", "City": "Milwaukee", "Country": "United States", "Description": "The University of Wisconsin Milwaukee UWM-NEMO cluster", "ID": 10260, "Latitude": 43.038902, "LongName": "University of Wisconsin Milwaukee", "Longitude": -87.906471, "Name": "UWM - NEMO", "State": "Wisconsin", "Zipcode": "53211"}, "University of Alabama": {"AddressLine1": "125 Gordon Palmer Hall", "City": "Tuscaloosa", "Country": "United States", "Description": "University of Alabama", "ID": 10336, "Latitude": 33.2108144667759, "LongName": "University of Alabama", "Longitude": -87.54220573637555, "Name": "University of Alabama", "Zipcode": 35487}, "University of Arkansas": {"ID": 10331, "Latitude": 36.0686201021275, "LongName": "University of Arkansas", "Longitude": -94.1758126974506, "Name": "University of Arkansas"}, "University of Arkansas for Medical Sciences": {"ID": 10325, "Latitude": 34.74954458019702, "LongName": "University of Arkansas for Medical Sciences", "Longitude": -92.32063891743086, "Name": "University of Arkansas for Medical Sciences"}, "University of Colorado Denver": {"AddressLine1": "1201 Larimer Street", "City": "Denver", "Country": "United States", "Description": "University of Colorado Denver", "ID": 10338, "Latitude": 39.7466611, "LongName": "University of Colorado Denver", "Longitude": -105.0023241, "Name": "University of Colorado Denver", "Zipcode": 80204}, "University of Kansas": {"ID": 10321, "Latitude": 38.95456914692783, "LongName": "University of Kansas", "Longitude": -95.25580683080793, "Name": "University of Kansas"}, "University of South Dakota": {"ID": 10319, "Latitude": 42.788458950069916, "LongName": "University of South Dakota", "Longitude": -96.92537028836695, "Name": "University of South Dakota"}, "University of South Florida": {"AddressLine1": "4202 E Fowler Ave", "City": "Tampa", "Country": "United States", "Description": "The University of South Florida", "ID": 10251, "Latitude": 28.058893, "LongName": "University of South Florida", "Longitude": -82.412738, "Name": "University of South Florida", "State": "Florida", "Zipcode": "33620"}, "University of Washington Research Computing": {"AddressLine1": "4545 15th Ave NE", "City": "Seattle", "Country": "United States", "ID": 10193, "Latitude": 47.655316, "LongName": "University of Washington Information Technology", "Longitude": -122.303546, "Name": "University of Washington Research Computing", "State": "WA", "Zipcode": "98105"}, "Utah-SLATE-Kingspeak": {"AddressLine1": "155 South 1452 East Room 405", "City": "Salt Lake City", "Country": "United States", "Description": "University of Utah's central Research Computing facility located in Salt Lake City, with multiple services including Virtual environments, HIPAA protected environments for Research, and classic X86 based HPC clusters - mainly with Infiniband interconnects.", "ID": 10266, "Latitude": 40.7608, "LongName": "Center for Research and High Performance Computing Kingspeak cluster", "Longitude": -111.891, "Name": "Utah-SLATE-Kingspeak", "State": "UT", "Zipcode": "84112"}, "Utah-SLATE-Lonepeak": {"AddressLine1": "155 South 1452 East Room 405", "City": "Salt Lake City", "Country": "United States", "Description": "University of Utah's Central Research Computing facility located in Salt Lake City, with multiple services including Virtual environments, HIPAA protected environments for Research, and classic X86 based HPC clusters - mainly with Infiniband interconnects.", "ID": 10210, "Latitude": 40.7608, "LongName": "Center for Research and High Performance Computing Lonepeak cluster", "Longitude": -111.891, "Name": "Utah-SLATE-Lonepeak", "State": "UT", "Zipcode": "84112"}, "Utah-SLATE-Notchpeak": {"AddressLine1": "155 South 1452 East Room 405", "City": "Salt Lake City", "Country": "United States", "Description": "University of Utah's central Research Computing facility located in Salt Lake City, with multiple services including Virtual environments, HIPAA protected environments for Research, and classic X86 based HPC clusters - mainly with Infiniband interconnects.", "ID": 10268, "Latitude": 40.7608, "LongName": "Center for Research and High Performance Computing Notchpeak cluster", "Longitude": -111.891, "Name": "Utah-SLATE-Notchpeak", "State": "UT", "Zipcode": "84112"}, "Utah-Submit-Node": {"AddressLine1": "155 South 1452 East Room 405", "City": "Salt Lake City", "Country": "United States", "Description": "University of Utah's central Research Computing facility located in Salt Lake City, with multiple services including Virtual environments, HIPAA protected environments for Research, and classic X86 based HPC clusters - mainly with Infiniband interconnects.", "ID": 10278, "Latitude": 40.7608, "LongName": "Center for Research and High Performance Computing Submit Node", "Longitude": -111.891, "Name": "Utah-Submit-Node", "State": "UT", "Zipcode": "84112"}, "VC3": {"AddressLine1": "5801 S Ellis Ave", "City": "Chicago", "Country": "United States", "Description": "The University of Chicago VC3 virtual cluster", "ID": 10249, "Latitude": 45, "LongName": "University of Chicago VC3", "Longitude": -90, "Name": "VC3", "State": "Ilinois", "Zipcode": "60637"}, "VT_OSG": {"City": "Blacksburg", "Country": "United States", "ID": 10127, "Latitude": 37.203774, "Longitude": -80.41342, "Name": "VT_OSG", "State": "Virginia", "Zipcode": "24061-0435"}, "Vanderbilt ACCRE": {"City": "Nashville", "Country": "United States", "ID": 10011, "Latitude": 36.141621, "Longitude": -86.796477, "Name": "Vanderbilt ACCRE", "State": "TN", "Zipcode": "37240"}, "Vanderbilt_EC2": {"City": "Nashville", "Country": "United States", "Description": "Test site for integrating EC2 into CMS' infrastructure", "ID": 10147, "Latitude": 36.143827, "LongName": "Vanderbilt Cloud Interface", "Longitude": -86.796455, "Name": "Vanderbilt_EC2", "State": "TN", "Zipcode": "37240"}, "Virginia Bioinformatics Institute": {"AddressLine1": "Washington Street", "City": "Blacksburg", "Country": "United States", "ID": 10166, "Latitude": 37.221196, "Longitude": -80.426488, "Name": "Virginia Bioinformatics Institute", "State": "VA", "Zipcode": "24061"}, "WIPAC": {"AddressLine1": "222 W. Washington Ave", "AddressLine2": "Suite 500", "City": "Madison", "Country": "United States", "Description": "The Wisconsin IceCube Particle Astrophysics Center houses multiple Particle Astrophysics projects with the IceCube Neutrino Observatory being the largest.", "ID": 10188, "Latitude": 43.070725, "LongName": "Wisconsin IceCube Particle Astrophysics Center", "Longitude": -89.388464, "Name": "WIPAC", "State": "WI", "Zipcode": "53703"}, "WISC-PATH": {"AddressLine1": "1210 W. Dayton St", "City": "Madison", "Country": "United States", "Description": "Resourcesd owned by the PATh project located at the University of Wisconsin-Madison", "ID": 10337, "Latitude": 43.071568, "LongName": "PATh Resources at UW-Madison", "Longitude": -89.406931, "Name": "WISC-PATH", "State": "Wisconsin", "Zipcode": "53706-1685"}, "WIX": {"City": "Washington DC", "Country": "United States", "Description": "PerfSONAR instance at Washington Information Exchange", "ID": 10195, "Latitude": 37.401394, "LongName": "Washington Information Exchange", "Longitude": -116.867846, "Name": "WIX", "Zipcode": "20004"}, "WSU - GRID_ce2": {"AddressLine1": "5925 Woodward Ave", "City": "Detroit", "Country": "United States", "Description": "The Wayne State University WSU-GRID_ce2 cluster", "ID": 10261, "Latitude": 42.363855, "LongName": "Wayne State University", "Longitude": -83.070494, "Name": "WSU - GRID_ce2", "State": "MI", "Zipcode": "48202"}, "WTAMU_HPC": {"AddressLine1": null, "City": "Canyon", "Country": "USA", "Description": "West Texas A&M University Cluster", "ID": 10305, "Latitude": 34.980868, "LongName": "West Texas A&M University", "Longitude": -101.915859, "Name": "WTAMU_HPC", "State": "TX", "Zipcode": "79016"}, "Wichita State University": {"ID": 10332, "Latitude": 37.71864516654194, "LongName": "Wichita State University", "Longitude": -97.29411994426366, "Name": "Wichita State University"}, "cinvestav": {"AddressLine1": "Av. IPN 2508", "AddressLine2": "Col. San Pedro Zacatenco", "City": "Mexico", "Country": "Mexico", "Description": "The Center for Research and Avanced Studies of I.P.N. (CINVESTAV) is a public organization dedicated to promote, develop, and teach research in science. The Institution counts 37 Departments, separated into 4 research areas; Exact Sciences, Biology & Medicine, Technology &\nEngineering, and Social Sciences & Humanities. CINVESTAV have 9 Centers across Mexico which offer a variety of Academic programs and research areas.", "ID": 10012, "Latitude": 19.50798, "LongName": "Centro de Investigacion y de Estudios Avanzados del IPN", "Longitude": -99.129424, "Name": "cinvestav", "State": "Distrito Federal", "Zipcode": "07360"}, "rutgers-cms": {"AddressLine1": "136 Frelinghuysen Road", "City": "Piscataway", "Country": "United States", "ID": 10099, "Latitude": 40.522918, "Longitude": -74.464514, "Name": "rutgers-cms", "State": "New Jersey", "Zipcode": "08854-8019"}, "shenma high performance computing at IPP CAS": {"City": "Hefei", "Country": "China", "ID": 10219, "Latitude": 37.401394, "Longitude": -116.867846, "Name": "shenma high performance computing at IPP CAS", "Zipcode": "230031"}, "ucsb-hep": {"City": "Santa Babara", "Country": "United States", "ID": 10140, "Latitude": 34.016242, "Longitude": -119.179687, "Name": "ucsb-hep", "State": "CA", "Zipcode": "93106"}, "uva-cms": {"City": "Charlottesville", "Country": "United States", "ID": 10110, "Latitude": 38.034546, "LongName": "University of Virginia - High Energy Physics - T3", "Longitude": -78.520027, "Name": "uva-cms", "State": "Va", "Zipcode": "22033"}}